운영기관,충전소,충전기ID,충전기타입,지역,시군구,주소,이용자 제한,위도,경도
환경부(한국자동차환경협회),kbs 부산방송총국,1,DC차데모+AC3상+DC콤보,부산광역시,수영구,부산광역시 수영구 수영로 429,제한없음,35.14480577,129.1075946
환경부(한국자동차환경협회),kbs 부산방송총국,11,DC콤보,부산광역시,수영구,부산광역시 수영구 수영로 429,제한없음,35.14480577,129.1075946
환경부(한국자동차환경협회),kbs 부산방송총국,12,DC콤보,부산광역시,수영구,부산광역시 수영구 수영로 429,제한없음,35.14480577,129.1075946
환경부(한국자동차환경협회),국립부산과학관,11,DC콤보,부산광역시,기장군,부산광역시 기장군 기장읍 석산리 293,제한없음,35.20400161,129.2129866
환경부(한국자동차환경협회),국립부산과학관,12,DC콤보,부산광역시,기장군,부산광역시 기장군 기장읍 석산리 293,제한없음,35.20400161,129.2129866
환경부(한국자동차환경협회),기장군청,1,DC차데모+AC3상+DC콤보,부산광역시,기장군,부산광역시 기장군 기장읍 기장대로 560(기장대로 560),제한없음,35.24348158,129.222956
환경부(한국자동차환경협회),기장시장 공영주차장,1,DC차데모+AC3상+DC콤보,부산광역시,기장군,부산광역시 기장군 대라리 70-1,제한없음,35.24418745,129.2153461
환경부(한국자동차환경협회),기장현대드림볼파크,1,DC차데모+AC3상+DC콤보,부산광역시,기장군,부산광역시 기장군 일광면 동백리 409,제한없음,35.29641404,129.2434221
환경부(한국자동차환경협회),기장현대드림볼파크,11,DC콤보,부산광역시,기장군,부산광역시 기장군 일광면 동백리 409,제한없음,35.29641404,129.2434221
환경부(한국자동차환경협회),기장현대드림볼파크,12,DC콤보,부산광역시,기장군,부산광역시 기장군 일광면 동백리 409,제한없음,35.29641404,129.2434221
환경부(한국자동차환경협회),기장현대차드림볼파크,1,DC콤보,부산광역시,기장군,부산광역시 기장군 일광면 동백리 425-1,제한없음,35.29684837,129.2431553
환경부(한국자동차환경협회),기장현대차드림볼파크,2,DC콤보,부산광역시,기장군,부산광역시 기장군 일광면 동백리 425-1,제한없음,35.29684837,129.2431553
환경부(한국자동차환경협회),김해공항,1,DC차데모+AC3상+DC콤보,부산광역시,강서구,부산광역시 강서구 공항진입로 108,제한없음,35.17175979,128.9472783
환경부(한국자동차환경협회),김해공항,2,DC차데모+AC3상+DC콤보,부산광역시,강서구,부산광역시 강서구 공항진입로 108,제한없음,35.17175979,128.9472783
환경부(한국자동차환경협회),남산역 공영주차장,1,DC차데모+AC3상+DC콤보,부산광역시,금정구,"부산광역시 금정구 중앙대로 2030, 주차장 입구 정면(남산동 893-8)",제한없음,35.26546413,129.0927351
환경부(한국자동차환경협회),대저역 (대저차량기지) ,91,DC콤보,부산광역시,강서구,부산광역시 강서구 대저1동 1619,제한없음,35.2131315,128.9542588
환경부(한국자동차환경협회),덕천 공영주차장,1,DC차데모+AC3상+DC콤보,부산광역시,북구,부산광역시 북구 덕천동 457-1,제한없음,35.21485419,129.0068259
환경부(한국자동차환경협회),동래역 공영주차장 ,1,DC차데모+AC3상+DC콤보,부산광역시,동래구,부산광역시 동래구 중앙대로 1324,제한없음,35.20561461,129.0784802
환경부(한국자동차환경협회),동원 공영주차장,1,DC차데모+AC3상+DC콤보,부산광역시,북구,부산광역시 북구 만덕동 934,제한없음,35.21040053,129.0300939
환경부(한국자동차환경협회),롯데마트 광복점,1,DC차데모+AC3상+DC콤보,부산광역시,중구,부산광역시 중구 중앙대로2 (중앙동7가),제한없음,35.0979849,129.0366323
환경부(한국자동차환경협회),롯데마트 동래점,1,DC차데모+AC3상+DC콤보,부산광역시,동래구,부산광역시 동래구 중앙대로 1393 (온천동),제한없음,35.21170799,129.0774797
환경부(한국자동차환경협회),롯데마트 부산점,1,DC차데모+AC3상+DC콤보,부산광역시,부산진구,부산광역시 부산진구 신천대로 241,제한없음,35.16330698,129.0493159
환경부(한국자동차환경협회),롯데마트 사상점,1,DC차데모+AC3상+DC콤보,부산광역시,사상구,부산광역시 사상구 낙동대로 733 (엄궁동),제한없음,35.12759834,128.9683583
환경부(한국자동차환경협회),롯데마트 사하점,1,DC차데모+AC3상+DC콤보,부산광역시,사하구,"부산광역시 사하구 을숙도대로 610, 지상주차장 4층(장림동 1033-2)",제한없음,35.08478346,128.97231
환경부(한국자동차환경협회),롯데마트 화명점,1,DC차데모+AC3상+DC콤보,부산광역시,북구,부산광역시 북구 화명대로 47(화명동),제한없음,35.23516715,129.0130145
환경부(한국자동차환경협회),망미동 공영주차장,1,DC차데모+AC3상+DC콤보,부산광역시,수영구,부산광역시 수영구 망미동 979-73,제한없음,35.1703321,129.0968083
환경부(한국자동차환경협회),명장동 공영주차장 ,1,DC콤보,부산광역시,동래구,부산광역시 동래구 명장동 538,제한없음,35.21080805,129.0977214
환경부(한국자동차환경협회),바다별 어린이집,1,DC콤보,부산광역시,남구,부산광역시 남구 용당동 454-2,제한없음,35.12028728,129.0961206
환경부(한국자동차환경협회),바다별 어린이집,2,DC콤보,부산광역시,남구,부산광역시 남구 용당동 454-2,제한없음,35.12028728,129.0961206
환경부(한국자동차환경협회),부산 어린이 대공원,1,DC차데모+AC3상+DC콤보,부산광역시,부산진구,부산광역시 부산진구 성지곡로 3,제한없음,35.18271899,129.0469946
환경부(한국자동차환경협회),부산 해군회관,91,DC콤보,부산광역시,남구,부산광역시 남구 용호동 947-1,제한없음,35.10634329,129.115735
환경부(한국자동차환경협회),부산도서관,21,DC콤보,부산광역시,사상구,부산광역시 사상구 덕포동 415-2,제한없음,35.17272718,128.9852123
환경부(한국자동차환경협회),부산도서관,22,DC콤보,부산광역시,사상구,부산광역시 사상구 덕포동 415-2,제한없음,35.17272718,128.9852123
환경부(한국자동차환경협회),부산도시공사,21,DC콤보,부산광역시,부산진구,부산광역시 부산진구 신천대로 156,제한없음,35.15591504,129.0513895
환경부(한국자동차환경협회),부산도시공사,22,DC콤보,부산광역시,부산진구,부산광역시 부산진구 신천대로 156,제한없음,35.15591504,129.0513895
환경부(한국자동차환경협회),부산동부경찰서,1,DC콤보,부산광역시,동구,부산광역시 동구 중앙대로 387,제한없음,35.1297333,129.0489821
환경부(한국자동차환경협회),부산시 교육청,1,DC차데모+AC3상+DC콤보,부산광역시,부산진구,부산광역시 부산진구 화지로 12,제한없음,35.17604784,129.0639402
환경부(한국자동차환경협회),부산시민공원 지하 주차장,1,DC차데모+AC3상+DC콤보,부산광역시,부산진구,부산광역시 부산진구 시민공원로 73,제한없음,35.16545511,129.0558537
환경부(한국자동차환경협회),부산아시아드보조경기장VIP주차장,1,DC차데모+AC3상+DC콤보,부산광역시,연제구,부산광역시 연제구 거제동 1312,제한없음,35.1890942,129.0569553
환경부(한국자동차환경협회),부산아시아드보조경기장VIP주차장,2,DC차데모+AC3상+DC콤보,부산광역시,연제구,부산광역시 연제구 거제동 1312,제한없음,35.1890942,129.0569553
환경부(한국자동차환경협회),부산아시아드보조경기장VIP주차장,11,DC콤보,부산광역시,연제구,부산광역시 연제구 거제동 1312,제한없음,35.1890942,129.0569553
환경부(한국자동차환경협회),부산아시아드보조경기장VIP주차장,12,DC콤보,부산광역시,연제구,부산광역시 연제구 거제동 1312,제한없음,35.1890942,129.0569553
환경부(한국자동차환경협회),부산아시아드보조경기장VIP주차장,51,DC콤보,부산광역시,연제구,부산광역시 연제구 거제동 1312,제한없음,35.1890942,129.0569553
환경부(한국자동차환경협회),부산아시아드보조경기장VIP주차장,52,DC콤보,부산광역시,연제구,부산광역시 연제구 거제동 1312,제한없음,35.1890942,129.0569553
환경부(한국자동차환경협회),부산영도경찰서,1,DC콤보,부산광역시,영도구,부산광역시 영도구 태종로 46,제한없음,35.09384862,129.0368829
환경부(한국자동차환경협회),부산조선해양기자재공업협동조합,1,DC차데모+AC3상+DC콤보,부산광역시,강서구,부산광역시 강서구 미음산단로295번길 10,제한없음,35.15072045,128.8604328
환경부(한국자동차환경협회),부산지방경찰청 앞 민원인 주차장,1,DC차데모+AC3상+DC콤보,부산광역시,연제구,부산광역시 연제구 중앙대로 999,제한없음,35.17910817,129.0744915
환경부(한국자동차환경협회),부산진구청 지하1층 주차장,1,DC차데모+AC3상+DC콤보,부산광역시,부산진구,부산광역시 부산진구 시민공원로 30 출구쪽,제한없음,35.16283064,129.0531883
환경부(한국자동차환경협회),부산테크노파크 종합물류경영기술지원센터,1,DC차데모+AC3상+DC콤보,부산광역시,영도구,부산광역시 영도구 해양로 435-1 한국조선해양기자재연구원옆,제한없음,35.07317499,129.079734
환경부(한국자동차환경협회),부산현대미술관,1,DC콤보,부산광역시,사하구,부산광역시 사하구 낙동남로 1191,제한없음,35.10933193,128.9426936
환경부(한국자동차환경협회),부산현대미술관,2,DC콤보,부산광역시,사하구,부산광역시 사하구 낙동남로 1191,제한없음,35.10933193,128.9426936
환경부(한국자동차환경협회),부산현대미술관,3,DC콤보,부산광역시,사하구,부산광역시 사하구 낙동남로 1191,제한없음,35.10933193,128.9426936
환경부(한국자동차환경협회),부산환경공단 명지사업소,1,DC차데모+AC3상+DC콤보,부산광역시,강서구,"부산광역시 강서구 명지오션시티13로 12-11, 주차장 입구 왼쪽(명지동 3226-1)",제한없음,35.09078989,128.8988296
환경부(한국자동차환경협회),부산환경공단 명지사업소,91,DC콤보,부산광역시,강서구,부산광역시 강서구 명지오션시티 13로 12-11,제한없음,35.09078989,128.8988296
환경부(한국자동차환경협회),부전역 공영주차장,11,DC콤보,부산광역시,부산진구,부산광역시 부산진구 부전1동 46,제한없음,35.163563,129.061808
환경부(한국자동차환경협회),부전역 공영주차장,12,DC콤보,부산광역시,부산진구,부산광역시 부산진구 부전1동 46,제한없음,35.163563,129.061808
환경부(한국자동차환경협회),사하경찰서,1,DC차데모+AC3상+DC콤보,부산광역시,사하구,부산광역시 사하구 을숙도대로 665,제한없음,35.08596185,128.978471
환경부(한국자동차환경협회),삼락재첩거리,1,DC차데모+AC3상+DC콤보,부산광역시,사상구,부산광역시 사상구 낙동대로 1518번길 26,제한없음,35.19307616,128.9854406
환경부(한국자동차환경협회),수변공원,1,DC차데모+AC3상+DC콤보,부산광역시,수영구,부산광역시 수영구 민락수변로 95,제한없음,35.15473815,129.131069
환경부(한국자동차환경협회),신해운대역(제7508부대 면회실),1,DC콤보,부산광역시,해운대구,부산광역시 해운대구 좌동 사서함 321-16호,제한없음,35.18708265,129.1747265
환경부(한국자동차환경협회),신해운대역(제7508부대 면회실),91,DC콤보,부산광역시,해운대구,부산광역시 해운대구 좌동 사서함 321-16호,제한없음,35.18708265,129.1747265
환경부(한국자동차환경협회),암남동주민센터,1,DC콤보,부산광역시,서구,부산광역시 서구 암남동 89-1,제한없음,35.07984552,129.0213018
환경부(한국자동차환경협회),엄궁초등학교지하 공영주차장,1,DC차데모+AC3상+DC콤보,부산광역시,사상구,부산광역시 사상구 엄궁로191번길 23(엄궁동),제한없음,35.12918626,128.9743987
환경부(한국자동차환경협회),영도구청,11,DC콤보,부산광역시,영도구,부산광역시 영도구 태종로 423,제한없음,35.09121745,129.0679105
환경부(한국자동차환경협회),영도구청,12,DC콤보,부산광역시,영도구,부산광역시 영도구 태종로 423,제한없음,35.09121745,129.0679105
환경부(한국자동차환경협회),오일마트주유소,1,DC콤보,부산광역시,사하구,부산광역시 사하구 을숙도대로 767,제한없음,35.08624073,128.9887111
환경부(한국자동차환경협회),온천장역 공영주차장,1,DC차데모+AC3상+DC콤보,부산광역시,동래구,부산광역시 동래구 중앙대로 1495-10공영주차장(온천동 156-13),제한없음,35.21936366,129.0851905
환경부(한국자동차환경협회),용두산 공영주차장,1,DC차데모+AC3상+DC콤보,부산광역시,중구,부산광역시 중구 대청로 116번길 3,제한없음,35.10231986,129.032684
환경부(한국자동차환경협회),용호만유람선터미널,21,DC콤보,부산광역시,남구,부산광역시 남구 분포로 101,제한없음,35.13272711,129.1153511
환경부(한국자동차환경협회),용호만유람선터미널,22,DC콤보,부산광역시,남구,부산광역시 남구 분포로 101,제한없음,35.13272711,129.1153511
환경부(한국자동차환경협회),이마트 T명지S점,21,DC콤보,부산광역시,강서구,부산광역시 강서구 명지국제6로 168,제한없음,35.09311198,128.9181436
환경부(한국자동차환경협회),이마트 T명지S점,22,DC콤보,부산광역시,강서구,부산광역시 강서구 명지국제6로 168,제한없음,35.09311198,128.9181436
환경부(한국자동차환경협회),이마트 금정점,1,DC차데모,부산광역시,금정구,"부산광역시 금정구 중앙대로1841번길 24, 지상주차장 3층 73구역(구서동 368)",제한없음,35.24994153,129.0905962
환경부(한국자동차환경협회),이마트 문현점,1,DC차데모+AC3상,부산광역시,남구,"부산광역시 남구 전포대로91번길 47, 지상주차장 4층 A구역(문현동 751)",제한없음,35.1443054,129.0642386
환경부(한국자동차환경협회),이마트 연제점,1,DC차데모+AC3상,부산광역시,연제구,"부산광역시 연제구 연수로 89, 지하주차장 1층 E구역(연산동 822-7)",제한없음,35.1761555,129.0813141
환경부(한국자동차환경협회),이마트 해운대점,1,DC차데모+AC3상+DC콤보,부산광역시,해운대구,"부산광역시 해운대구 좌동순환로 511, 지상주차장 4층 F구역(중동 1767)",제한없음,35.16602082,129.1673738
환경부(한국자동차환경협회),장안읍사무소,1,DC차데모+AC3상+DC콤보,부산광역시,기장군,부산광역시 기장군 장안읍 좌방길 5,제한없음,35.31351924,129.2439933
환경부(한국자동차환경협회),장안천야구장,1,DC차데모+AC3상+DC콤보,부산광역시,기장군,부산광역시 기장군 장안읍 고무로 294,제한없음,35.33168819,129.2789973
환경부(한국자동차환경협회),장안휴게소(부산방향),1,DC차데모+AC3상+DC콤보,부산광역시,기장군,부산광역시 기장군 장안읍 명례리 835,제한없음,35.3793616,129.2466511
환경부(한국자동차환경협회),장안휴게소(부산방향),91,DC콤보,부산광역시,기장군,부산광역시 기장군 장안읍 동해고속도로 25,제한없음,35.37752494,129.2464016
환경부(한국자동차환경협회),장안휴게소(울산방향),1,DC차데모+AC3상+DC콤보,부산광역시,기장군,"부산광역시 기장군 장안읍 동해고속도로 26, 휴게소와 LPG충전소 사이(명례리 산78-1)",제한없음,35.38287021,129.2483936
환경부(한국자동차환경협회),장안휴게소(울산방향),91,DC콤보,부산광역시,기장군,부산광역시 기장군 장안읍 동해고속도로 26,제한없음,35.38287021,129.2483936
환경부(한국자동차환경협회),장전역 공영주차장,1,DC차데모+AC3상+DC콤보,부산광역시,금정구,부산광역시 금정구 장전1동 242,제한없음,35.24085028,129.0882932
환경부(한국자동차환경협회),정관노인복지관,11,DC콤보,부산광역시,기장군,부산광역시 기장군 정관읍 정관중앙로 83-14,제한없음,35.32475583,129.1790842
환경부(한국자동차환경협회),정관노인복지관,12,DC콤보,부산광역시,기장군,부산광역시 기장군 정관읍 정관중앙로 83-14,제한없음,35.32475583,129.1790842
환경부(한국자동차환경협회),정관보건지소,11,DC콤보,부산광역시,기장군,부산광역시 기장군 정관읍 용수로 11,제한없음,35.32519724,129.1793766
환경부(한국자동차환경협회),정관보건지소,12,DC콤보,부산광역시,기장군,부산광역시 기장군 정관읍 용수로 11,제한없음,35.32519724,129.1793766
환경부(한국자동차환경협회),정관읍사무소,1,DC차데모+AC3상+DC콤보,부산광역시,기장군,"부산광역시 기장군 정관읍 용수로 4, 입구 우측",제한없음,35.32550252,129.1802917
환경부(한국자동차환경협회),종합사회복지관,1,DC차데모+AC3상+DC콤보,부산광역시,기장군,부산광역시 기장군 기장읍 차성로 206,제한없음,35.23590117,129.213634
환경부(한국자동차환경협회),중동역 공영주차장,1,DC차데모+AC3상+DC콤보,부산광역시,해운대구,부산광역시 해운대구 해운대로 731,제한없음,35.1669159,129.1698149
환경부(한국자동차환경협회),철마면사무소,1,DC차데모+AC3상+DC콤보,부산광역시,기장군,부산광역시 기장군 철마면 철마면 485,제한없음,35.23760165,129.1622043
환경부(한국자동차환경협회),철마체육시설,1,DC차데모+AC3상+DC콤보,부산광역시,기장군,부산광역시 기장군 철마면 철마로 543,제한없음,35.27261529,129.1556788
환경부(한국자동차환경협회),하단역 공영주차장,1,DC차데모+AC3상+DC콤보,부산광역시,사하구,"부산광역시 사하구 하신중앙로 313, 주차장 출구 오른쪽(하단1동 599)",제한없음,35.10459919,128.9644493
환경부(한국자동차환경협회),학장천 공영주차장,1,DC차데모+AC3상+DC콤보,부산광역시,사상구,"부산광역시 사상구 가야대로 309, 주차장 입구 정면(주례동 1233-7)",제한없음,35.15103383,129.006436
환경부(한국자동차환경협회),한국공항공사 부산지역본부 김해공항 옥외주차장,21,DC콤보,부산광역시,강서구,부산광역시 강서구 공항진입로 108,제한없음,35.17175979,128.9472783
환경부(한국자동차환경협회),한국공항공사 부산지역본부 김해공항 옥외주차장,22,DC콤보,부산광역시,강서구,부산광역시 강서구 공항진입로 108,제한없음,35.17175979,128.9472783
환경부(한국자동차환경협회),한국공항공사 부산지역본부 김해공항 옥외주차장,23,DC콤보,부산광역시,강서구,부산광역시 강서구 공항진입로 108,제한없음,35.17175979,128.9472783
환경부(한국자동차환경협회),한국공항공사 부산지역본부 김해공항 옥외주차장,24,DC콤보,부산광역시,강서구,부산광역시 강서구 공항진입로 108,제한없음,35.17175979,128.9472783
환경부(한국자동차환경협회),한국공항공사 부산지역본부 김해공항 주차빌딩,21,DC콤보,부산광역시,강서구,부산광역시 강서구 대저2동 2764,제한없음,35.17228746,128.9498472
환경부(한국자동차환경협회),한국공항공사 부산지역본부 김해공항 주차빌딩,22,DC콤보,부산광역시,강서구,부산광역시 강서구 대저2동 2764,제한없음,35.17228746,128.9498472
환경부(한국자동차환경협회),한국공항공사 부산지역본부 김해공항 주차빌딩,23,DC콤보,부산광역시,강서구,부산광역시 강서구 대저2동 2764,제한없음,35.17228746,128.9498472
환경부(한국자동차환경협회),한국공항공사 부산지역본부 김해공항 주차빌딩,24,DC콤보,부산광역시,강서구,부산광역시 강서구 대저2동 2764,제한없음,35.17228746,128.9498472
환경부(한국자동차환경협회),한국마사회 부산경남지역본부,1,DC차데모+AC3상+DC콤보,부산광역시,강서구,부산광역시 강서구 가락대로 929,제한없음,35.15474347,128.8819761
환경부(한국자동차환경협회),한국수력원자력 고리원자력본부,21,DC콤보,부산광역시,기장군,부산광역시 기장군 장안읍 길천리 300,제한없음,35.32978845,129.2860511
환경부(한국자동차환경협회),한국수력원자력 고리원자력본부,22,DC콤보,부산광역시,기장군,부산광역시 기장군 장안읍 길천리 300,제한없음,35.32978845,129.2860511
환경부(한국자동차환경협회),해성스포렉스 주차장,1,DC콤보,부산광역시,강서구,부산광역시 강서구 공항진입로42번길20,제한없음,35.18453532,128.9508366
환경부(한국자동차환경협회),해성스포렉스 주차장,2,DC콤보,부산광역시,강서구,부산광역시 강서구 공항진입로42번길20,제한없음,35.18453532,128.9508366
환경부(한국자동차환경협회),해운대자동차검사소,1,DC콤보,부산광역시,해운대구,부산광역시 해운대구 센텀동로 201,제한없음,35.18404495,129.1197525
환경부(한국자동차환경협회),해운대자동차검사소,2,DC콤보,부산광역시,해운대구,부산광역시 해운대구 센텀동로 201,제한없음,35.18404495,129.1197525
환경부(한국자동차환경협회),홈플러스 아시아드점,1,DC차데모+AC3상,부산광역시,연제구,"부산광역시 연제구 종합운동장로 7, 지하주차장 1층 35구역(거제동 1208)",제한없음,35.19126734,129.0620086
환경부(한국자동차환경협회),홈플러스 영도점,1,DC차데모,부산광역시,영도구,"부산광역시 영도구 대교로14번길 57, 지상주차장 3층 410구역(봉래동2가 151-1)",제한없음,35.09590511,129.0442257
GS칼텍스,동아주유소,1,DC콤보,부산광역시,사하구,부산광역시 사하구 낙동대로 112주유소 출구 부근,제한없음,35.10396193,129.0033499
GS칼텍스,동아주유소,2,DC콤보,부산광역시,사하구,부산광역시 사하구 낙동대로 112주유소 출구 부근,제한없음,35.10396193,129.0033499
GS칼텍스,동화주유소,1,DC콤보,부산광역시,해운대구,부산광역시 해운대구 해운대로 211주유소 사무실 건물 사이(재송동 658-1),제한없음,35.17987078,129.1260511
GS칼텍스,동화주유소,2,DC콤보,부산광역시,해운대구,부산광역시 해운대구 해운대로 211주유소 사무실 건물 사이(재송동 658-1),제한없음,35.17987078,129.1260511
GS칼텍스,마리나타운주유소,1,DC콤보,부산광역시,해운대구,부산광역시 해운대구 해운대해변로 44마리나타운주유소,제한없음,35.16304583,129.1380424
GS칼텍스,마리나타운주유소,2,DC콤보,부산광역시,해운대구,부산광역시 해운대구 해운대해변로 44마리나타운주유소,제한없음,35.16304583,129.1380424
GS칼텍스,부산달맞이주유소,1,DC콤보,부산광역시,해운대구,부산광역시 해운대구 달맞이길 57주유소 출구 부근(중동 1779),제한없음,35.16142262,129.1707615
GS칼텍스,부산달맞이주유소,2,DC콤보,부산광역시,해운대구,부산광역시 해운대구 달맞이길 57주유소 출구 부근(중동 1779),제한없음,35.16142262,129.1707615
GS칼텍스,영풍주유소,1,DC콤보,부산광역시,금정구,부산광역시 금정구 중앙대로 1782GS칼텍스 영풍주유소(14-3 영풍주유소),제한없음,35.24330711,129.0936195
GS칼텍스,영풍주유소,2,DC콤보,부산광역시,금정구,부산광역시 금정구 중앙대로 1782GS칼텍스 영풍주유소(14-3 영풍주유소),제한없음,35.24330711,129.0936195
GS칼텍스,해운주유소,1,DC콤보,부산광역시,해운대구,부산광역시 해운대구 해운대로 615해운주유소,제한없음,35.16334485,129.1577325
GS칼텍스,해운주유소,2,DC콤보,부산광역시,해운대구,부산광역시 해운대구 해운대로 615해운주유소,제한없음,35.16334485,129.1577325
제주전기자동차서비스,KT 모터스,1,AC완속,부산광역시,기장군,부산광역시 기장군 정관읍 예림1로 6,제한없음,35.32438366,129.2022253
제주전기자동차서비스,KT 모터스,2,AC완속,부산광역시,기장군,부산광역시 기장군 정관읍 예림1로 6,제한없음,35.32438366,129.2022253
제주전기자동차서비스,㈜우리은행 부전동금융센터,1,AC완속,부산광역시,부산진구,부산광역시 부산진구 중앙대로 697(254-1 우리은행부전동지점),제한없음,35.15513847,129.0588428
제주전기자동차서비스,나라키움 부산통합청사,1,DC차데모+AC3상+DC콤보,부산광역시,연제구,부산광역시 연제구 거제대로 222부산종합청사 지하주차장 1층,제한없음,35.18711842,129.0732627
제주전기자동차서비스,낙동강오리알,1,AC완속,부산광역시,강서구,부산광역시 강서구 상덕로 35-1낙동강오리알,제한없음,35.19243829,128.9073241
제주전기자동차서비스,낙동강오리알,2,AC완속,부산광역시,강서구,부산광역시 강서구 상덕로 35-1낙동강오리알,제한없음,35.19243829,128.9073241
제주전기자동차서비스,동부산아이존빌아파트,1,AC완속,부산광역시,영도구,부산광역시 영도구 영선대로 98,제한없음,35.08834005,129.0431661
제주전기자동차서비스,동부산아이존빌아파트,2,AC완속,부산광역시,영도구,부산광역시 영도구 영선대로 98,제한없음,35.08834005,129.0431661
제주전기자동차서비스,동부산아이존빌아파트,3,AC완속,부산광역시,영도구,부산광역시 영도구 영선대로 98,제한없음,35.08834005,129.0431661
제주전기자동차서비스,동부산아이존빌아파트,4,AC완속,부산광역시,영도구,부산광역시 영도구 영선대로 98,제한없음,35.08834005,129.0431661
제주전기자동차서비스,동부산아이존빌아파트,5,AC완속,부산광역시,영도구,부산광역시 영도구 영선대로 98,제한없음,35.08834005,129.0431661
제주전기자동차서비스,동부산아이존빌아파트,6,AC완속,부산광역시,영도구,부산광역시 영도구 영선대로 98,제한없음,35.08834005,129.0431661
제주전기자동차서비스,동의대학교,1,AC완속,부산광역시,부산진구,부산광역시 부산진구 엄광로 176,제한없음,35.14431845,129.0363099
제주전기자동차서비스,동의대학교,2,AC완속,부산광역시,부산진구,부산광역시 부산진구 엄광로 176,제한없음,35.14431845,129.0363099
제주전기자동차서비스,브라운도트호텔수영,1,AC완속,부산광역시,수영구,부산광역시 수영구 망미번영로52번길 112,제한없음,35.16859846,129.1141233
제주전기자동차서비스,브라운도트호텔수영,2,AC완속,부산광역시,수영구,부산광역시 수영구 망미번영로52번길 112,제한없음,35.16859846,129.1141233
제주전기자동차서비스,영도대원아파트,1,AC완속,부산광역시,영도구,부산광역시 영도구 남항새싹길 79,제한없음,35.08230321,129.0440672
제주전기자동차서비스,영도대원아파트,2,AC완속,부산광역시,영도구,부산광역시 영도구 남항새싹길 79,제한없음,35.08230321,129.0440672
제주전기자동차서비스,영도대원아파트,3,AC완속,부산광역시,영도구,부산광역시 영도구 남항새싹길 79,제한없음,35.08230321,129.0440672
제주전기자동차서비스,영도대원아파트,4,AC완속,부산광역시,영도구,부산광역시 영도구 남항새싹길 79,제한없음,35.08230321,129.0440672
제주전기자동차서비스,학장반도보라타운,1,AC완속,부산광역시,사상구,부산광역시 사상구 대동로 94학장반도보라타운,제한없음,35.13793358,128.9783145
제주전기자동차서비스,학장반도보라타운,2,AC완속,부산광역시,사상구,부산광역시 사상구 대동로 94학장반도보라타운,제한없음,35.13793358,128.9783145
제주전기자동차서비스,협신자동차서비스 사상서비스,1,AC완속,부산광역시,사상구,부산광역시 사상구 가야대로 181,제한없음,35.15019234,128.99247
제주전기자동차서비스,홍우산업,1,AC완속,부산광역시,영도구,부산광역시 영도구 남항로19번길 8,제한없음,35.08973797,129.0390767
한국전력,Green Pole(경남공고옆),3,DC차데모+AC3상+DC콤보,부산광역시,부산진구,부산광역시 부산진구 전포대로 189번경남공고옆 도로 전주부착형 충전소(전포대로 189번),제한없음,35.15357822,129.0650556
한국전력,Green Pole(곡상골),1,AC완속,부산광역시,사상구,부산광역시 사상구 모라동 1345-7,제한없음,35.19154646,128.9909305
한국전력,Green Pole(반여부산은행),1,AC완속,부산광역시,해운대구,부산광역시 해운대구 반여동 1291-562,제한없음,35.19623558,129.1306534
한국전력,Green Pole(삼환맨션),1,DC차데모+AC3상+DC콤보,부산광역시,동래구,부산광역시 동래구 수안동 34-13,제한없음,35.19462699,129.087464
한국전력,Green Pole(서면BMW인근),1,AC완속,부산광역시,부산진구,부산광역시 부산진구 전포동 631-15,제한없음,35.16070656,129.063952
한국전력,Green Pole(서면중앙시장),1,AC완속,부산광역시,부산진구,부산광역시 부산진구 전포동 608-1,제한없음,35.1608772,129.0633149
한국전력,Green Pole(송정해수욕장),1,AC완속,부산광역시,해운대구,부산광역시 해운대구 송정동 706-1,제한없음,35.17905337,129.1987375
한국전력,Green Pole(송정해수욕장),2,AC완속,부산광역시,해운대구,부산광역시 해운대구 송정동 706-1,제한없음,35.17905337,129.1987375
한국전력,Green Pole(화신칼라1),1,AC완속,부산광역시,동구,부산광역시 동구 범일동 830-15,제한없음,35.13945609,129.0625223
한국전력,Green Pole(화신칼라2),1,AC완속,부산광역시,동구,부산광역시 동구 범일동 830-72,제한없음,35.14111949,129.0632455
한국전력,가구거리 공영주차장,1,DC콤보,부산광역시,동구,부산광역시 동구 중앙대로 471-10(범일동 183),제한없음,35.13613866,129.0553263
한국전력,가덕도동 행정복지센터,1,DC콤보,부산광역시,강서구,부산광역시 강서구 동선길 10(가덕도동 행정복지센터),제한없음,35.05664068,128.8316554
한국전력,감전역 역세권 공영주차장,1,DC콤보,부산광역시,사상구,부산광역시 사상구 사상로 지하 93-1공영주차장,제한없음,35.15553546,128.9912671
한국전력,강서경찰서,1,DC콤보,부산광역시,강서구,부산광역시 강서구 명지국제1로 305(607-5 부산강서경찰서),제한없음,35.11649247,128.90629
한국전력,강서구청 역세권 공영주차장,1,DC콤보,부산광역시,강서구,부산광역시 강서구 낙동북로 477(2300 강서구청),제한없음,35.21220294,128.9805851
한국전력,강서구청 역세권 공영주차장,2,DC콤보,부산광역시,강서구,부산광역시 강서구 낙동북로 477(2300 강서구청),제한없음,35.21220294,128.9805851
한국전력,강서구청 주차장,1,DC콤보,부산광역시,강서구,부산광역시 강서구 낙동북로 477주차장,제한없음,35.21220294,128.9805851
한국전력,강서구청 주차장,2,DC콤보,부산광역시,강서구,부산광역시 강서구 낙동북로 477주차장,제한없음,35.21220294,128.9805851
한국전력,강서브라이트센터,1,DC콤보,부산광역시,강서구,부산광역시 강서구 공항로811번길 10(1932-1 강서브라이트센터),제한없음,35.18019056,128.9574082
한국전력,강서브라이트센터,2,DC콤보,부산광역시,강서구,부산광역시 강서구 공항로811번길 10(1932-1 강서브라이트센터),제한없음,35.18019056,128.9574082
한국전력,거제1동 공영주차장,1,DC콤보,부산광역시,연제구,부산광역시 연제구 세병로 68(1466-17 온천천쌍용예가),제한없음,35.1938735,129.0835016
한국전력,건설안전시험사업소,1,DC콤보,부산광역시,금정구,부산광역시 금정구 개좌로239번길 39(450 건설안전시험사업소),제한없음,35.23307342,129.1227526
한국전력,구서역,1,DC차데모+AC3상+DC콤보,부산광역시,금정구,부산광역시 금정구 구서동 475,제한없음,35.24500186,129.0910942
한국전력,구포2동 공영주차장,1,DC콤보,부산광역시,북구,부산광역시 북구 낙동북로681번길 23(구포2동 행정복지센터),제한없음,35.20167701,128.9994237
한국전력,국립 해양박물관,1,DC차데모+AC3상+DC콤보,부산광역시,영도구,부산광역시 영도구 동삼동 1156,제한없음,35.07875443,129.0797008
한국전력,국립 해양박물관,2,DC차데모+AC3상+DC콤보,부산광역시,영도구,부산광역시 영도구 동삼동 1156,제한없음,35.07875443,129.0797008
한국전력,국립 해양박물관,3,DC차데모+AC3상+DC콤보,부산광역시,영도구,부산광역시 영도구 동삼동 1156,제한없음,35.07875443,129.0797008
한국전력,국립 해양박물관,4,DC차데모+AC3상+DC콤보,부산광역시,영도구,부산광역시 영도구 동삼동 1156,제한없음,35.07875443,129.0797008
한국전력,국립수산과학관,1,DC차데모+AC3상+DC콤보,부산광역시,기장군,부산광역시 기장군 기장읍 시랑리 408-1,제한없음,35.19248465,129.2237021
한국전력,국민건강보험공단,1,DC콤보,부산광역시,사하구,부산광역시 사하구 하신중앙로 171(신평동 646-1),제한없음,35.09382326,128.9624338
한국전력,군민체육공원,1,DC차데모+AC3상+DC콤보,부산광역시,기장군,부산광역시 기장군 일광면 원리 39,제한없음,35.30499674,129.2430473
한국전력,금정구청,1,DC콤보,부산광역시,금정구,부산광역시 금정구 중앙대로 1777(78 금정구청),제한없음,35.24205404,129.0924545
한국전력,기장지사,1,DC차데모+AC3상+DC콤보,부산광역시,기장군,부산광역시 기장군 기장읍 청강로 24기장지사 사옥 내 주차장(2층),제한없음,35.23448726,129.2197206
한국전력,낙동강하구에코센터,1,DC콤보,부산광역시,사하구,부산광역시 사하구 낙동남로 1250(하단동 1150-8),제한없음,35.10627934,128.9478296
한국전력,남구국민체육센터,1,DC콤보,부산광역시,남구,부산광역시 남구 백운포로 110(895-18 남구국민체육센터),제한없음,35.10388234,129.1082001
한국전력,남구청 서편 주차장,1,DC콤보,부산광역시,남구,부산광역시 남구 못골로 19,제한없음,35.13651595,129.0844346
한국전력,남구청 서편 주차장,2,DC콤보,부산광역시,남구,부산광역시 남구 못골로 19,제한없음,35.13651595,129.0844346
한국전력,남부산지사,1,DC차데모+AC3상+DC콤보,부산광역시,해운대구,부산광역시 해운대구 해운대해변로113,제한없음,35.16023126,129.1447447
한국전력,남해지방해양경찰청,1,DC콤보,부산광역시,동구,부산광역시 동구 충장대로 325(68-889 남해지방해양경찰청),제한없음,35.12742811,129.0552336
한국전력,남해지방해양경찰청,2,DC콤보,부산광역시,동구,부산광역시 동구 충장대로 325(68-889 남해지방해양경찰청),제한없음,35.12742811,129.0552336
한국전력,녹산산단 공영주차장,1,DC차데모+AC3상+DC콤보,부산광역시,강서구,부산광역시 강서구 녹산산단262로50번길 53,제한없음,35.08440694,128.8402425
한국전력,대리천 공영주차장,1,DC차데모+AC3상+DC콤보,부산광역시,북구,부산광역시 북구 금곡대로 7번길 35,제한없음,35.21008114,129.0031771
한국전력,동구체육공원 공영주차장,1,DC콤보,부산광역시,동구,부산광역시 동구 수정공원로 63(712-148 공영주차장),제한없음,35.13251538,129.0384112
한국전력,롯데몰 동부산점,1,DC콤보,부산광역시,기장군,부산광역시 기장군 기장읍 당사리 524,제한없음,35.19222502,129.2128063
한국전력,롯데몰 동부산점,2,DC콤보,부산광역시,기장군,부산광역시 기장군 기장읍 당사리 524,제한없음,35.19222502,129.2128063
한국전력,롯데몰 동부산점,3,DC콤보,부산광역시,기장군,부산광역시 기장군 기장읍 당사리 524,제한없음,35.19222502,129.2128063
한국전력,롯데몰 동부산점,4,DC콤보,부산광역시,기장군,부산광역시 기장군 기장읍 당사리 524,제한없음,35.19222502,129.2128063
한국전력,르네시떼,1,DC콤보,부산광역시,사상구,부산광역시 사상구 광장로 7,제한없음,35.16433608,128.9777161
한국전력,만남의광장,1,DC콤보,부산광역시,금정구,부산광역시 금정구 중앙대로 1810(구서동 481-1),제한없음,35.24701802,129.0947233
한국전력,만덕1동 공영주차장,1,DC콤보,부산광역시,북구,부산광역시 북구 만덕1로 63(만덕동 642-15),제한없음,35.21407752,129.0306265
한국전력,만덕2동 주민센터,1,DC차데모+AC3상+DC콤보,부산광역시,북구,부산광역시 북구 만덕2로 44번길 10,제한없음,35.2101851,129.0372031
한국전력,만덕동심공원 공영주차장,1,DC콤보,부산광역시,북구,부산광역시 북구 덕천로 320(만덕동 872-3),제한없음,35.20899751,129.0387629
한국전력,명륜역,1,DC차데모+AC3상+DC콤보,부산광역시,동래구,부산광역시 동래구 명륜동 721-2,제한없음,35.21382396,129.0807489
한국전력,모라1동행정복지센터 부설주차장,1,DC콤보,부산광역시,사상구,부산광역시 사상구 모라로 93주차장,제한없음,35.18700326,128.9899736
한국전력,모라중학교 지하 공영주차장,1,DC콤보,부산광역시,사상구,부산광역시 사상구 백양대로 936,제한없음,35.1906712,128.9924453
한국전력,민락동 매립지 공영주차장,1,DC차데모+AC3상+DC콤보,부산광역시,수영구,부산광역시 수영구 민락동113-46,제한없음,35.15497264,129.1276396
한국전력,반여농산물도매시장관리사업소,1,DC콤보,부산광역시,해운대구,부산광역시 해운대구 수영강변대로 626(559 반여농산물도매시장),제한없음,35.21592917,129.1209302
한국전력,반여도서관,1,DC콤보,부산광역시,해운대구,부산광역시 해운대구 재반로282번길 38,제한없음,35.20202568,129.1338104
한국전력,벡스코,1,DC콤보,부산광역시,해운대구,부산광역시 해운대구 APEC로 55(1500 벡스코),제한없음,35.16906372,129.1360183
한국전력,벡스코,2,DC콤보,부산광역시,해운대구,부산광역시 해운대구 APEC로 55(1500 벡스코),제한없음,35.16906372,129.1360183
한국전력,벡스코,3,DC콤보,부산광역시,해운대구,부산광역시 해운대구 APEC로 55(1500 벡스코),제한없음,35.16906372,129.1360183
한국전력,벡스코 제2전시장 지하주차장,1,DC차데모+AC3상+DC콤보,부산광역시,해운대구,부산광역시 해운대구 APEC로 55,제한없음,35.16906372,129.1360183
한국전력,벡스코 제2전시장 지하주차장,2,DC차데모+AC3상+DC콤보,부산광역시,해운대구,부산광역시 해운대구 APEC로 55,제한없음,35.16906372,129.1360183
한국전력,벡스코 제2전시장 지하주차장,3,DC차데모+AC3상+DC콤보,부산광역시,해운대구,부산광역시 해운대구 APEC로 55,제한없음,35.16906372,129.1360183
한국전력,부산 북구청,1,DC콤보,부산광역시,북구,부산광역시 북구 낙동대로1570번길 33(1124-1 북구청),제한없음,35.19688251,128.9900955
한국전력,부산 중구청,1,DC차데모+AC3상+DC콤보,부산광역시,중구,부산광역시 중구 중구로 120,제한없음,35.10619725,129.0323514
한국전력,부산과학체험관,1,DC콤보,부산광역시,동구,부산광역시 동구 중앙대로260번길 11(초량동 1167),제한없음,35.12032104,129.0441278
한국전력,부산교통공사 본사,1,DC차데모+AC3상+DC콤보,부산광역시,부산진구,부산광역시 부산진구 범천동 861-1,제한없음,35.14977024,129.060459
한국전력,부산구치소,1,DC콤보,부산광역시,사상구,부산광역시 사상구 학장로 268(주례동 666),제한없음,35.14701397,128.9948633
한국전력,부산국립국악원,1,DC콤보,부산광역시,부산진구,부산광역시 부산진구 국악로 2(219-2 국립부산국악원),제한없음,35.17145978,129.0541302
한국전력,부산국제금융센터,1,DC콤보,부산광역시,남구,부산광역시 남구 문현금융로 40(1229-1 부산국제금융센터),제한없음,35.14649173,129.0658548
한국전력,부산국제금융센터,2,DC콤보,부산광역시,남구,부산광역시 남구 문현금융로 40(1229-1 부산국제금융센터),제한없음,35.14649173,129.0658548
한국전력,부산국제금융센터,3,DC콤보,부산광역시,남구,부산광역시 남구 문현금융로 40(1229-1 부산국제금융센터),제한없음,35.14649173,129.0658548
한국전력,부산국제금융센터,4,DC콤보,부산광역시,남구,부산광역시 남구 문현금융로 40(1229-1 부산국제금융센터),제한없음,35.14649173,129.0658548
한국전력,부산국제금융센터,5,DC콤보,부산광역시,남구,부산광역시 남구 문현금융로 40(1229-1 부산국제금융센터),제한없음,35.14649173,129.0658548
한국전력,부산국제금융센터,6,DC콤보,부산광역시,남구,부산광역시 남구 문현금융로 40(1229-1 부산국제금융센터),제한없음,35.14649173,129.0658548
한국전력,부산국제수산물유통시설관리사업소,1,DC콤보,부산광역시,서구,부산광역시 서구 원양로 35(761 국제수산물도매시장),제한없음,35.05883793,129.0101762
한국전력,부산국제수산물유통시설관리사업소,2,DC콤보,부산광역시,서구,부산광역시 서구 원양로 35(761 국제수산물도매시장),제한없음,35.05883793,129.0101762
한국전력,부산대남측,1,DC차데모+AC3상+DC콤보,부산광역시,금정구,부산광역시 금정구 부곡동 441-27,제한없음,35.22786224,129.0892373
한국전력,부산대북측,1,DC차데모+AC3상+DC콤보,부산광역시,금정구,부산광역시 금정구 부곡동 399,제한없음,35.23559533,129.0891599
한국전력,부산도시재생지원센터 비콘그라운드,1,DC콤보,부산광역시,수영구,부산광역시 수영구 망미번영로 49-1(망미동 603-2),제한없음,35.17189829,129.1096234
한국전력,부산디자인진흥원,1,DC콤보,부산광역시,해운대구,부산광역시 해운대구 센텀동로 57(1457 부산디자인진흥원),제한없음,35.17399281,129.1293924
한국전력,부산디자인진흥원,2,DC콤보,부산광역시,해운대구,부산광역시 해운대구 센텀동로 57(1457 부산디자인진흥원),제한없음,35.17399281,129.1293924
한국전력,부산문화회관,1,DC차데모+AC3상+DC콤보,부산광역시,남구,부산광역시 남구 대연동 848-4,제한없음,35.12734825,129.0937845
한국전력,부산문화회관,2,DC콤보,부산광역시,남구,부산광역시 남구 대연동 848-4,제한없음,35.12734825,129.0937845
한국전력,부산시설공단(중앙몰),1,DC콤보,부산광역시,부산진구,부산광역시 부산진구 가야대로 743(부전동 576-1),제한없음,35.15790054,129.0528328
한국전력,부산영락공원,1,DC콤보,부산광역시,금정구,부산광역시 금정구 금정도서관로 108(1494-1 영락공원),제한없음,35.27372233,129.1042094
한국전력,부산울산전력관리처,1,DC차데모+AC3상+DC콤보,부산광역시,부산진구,부산광역시 부산진구 중앙대로 666번길 43,제한없음,35.15272618,129.0615635
한국전력,부산울산전력관리처,3,AC완속,부산광역시,부산진구,부산광역시 부산진구 중앙대로 666번길 43,제한없음,35.15272618,129.0615635
한국전력,부산울산전력관리처,4,AC완속,부산광역시,부산진구,부산광역시 부산진구 중앙대로 666번길 43,제한없음,35.15272618,129.0615635
한국전력,부산울산직할,1,DC차데모+AC3상+DC콤보,부산광역시,부산진구,부산광역시 부산진구 중앙대로 666번길 43,제한없음,35.15272618,129.0615635
한국전력,부산종합버스터미널 주차장,1,DC차데모+AC3상+DC콤보,부산광역시,금정구,부산광역시 금정구 노포동 133,제한없음,35.28391559,129.0964875
한국전력,부산지방공단스포원,1,DC콤보,부산광역시,금정구,부산광역시 금정구 두구동 1641,제한없음,35.29156417,129.1051802
한국전력,부산지방공단스포원,2,DC콤보,부산광역시,금정구,부산광역시 금정구 두구동 1641,제한없음,35.29156417,129.1051802
한국전력,부산지방공단스포원,3,DC콤보,부산광역시,금정구,부산광역시 금정구 두구동 1641,제한없음,35.29156417,129.1051802
한국전력,부산지방공단스포원,4,DC콤보,부산광역시,금정구,부산광역시 금정구 두구동 1641,제한없음,35.29156417,129.1051802
한국전력,부산테크노파크,1,DC콤보,부산광역시,강서구,부산광역시 강서구 과학산단1로60번길 30(지사동 1274),제한없음,35.14755719,128.8276701
한국전력,부산항국제여객터미널,1,DC콤보,부산광역시,동구,부산광역시 동구 충장대로 206(부산항 국제여객터미널),제한없음,35.11774697,129.0491458
한국전력,북부산지사,1,DC차데모+AC3상+DC콤보,부산광역시,사상구,부산광역시 사상구 백양대로 700번길 24,제한없음,35.16869689,128.989921
한국전력,북부산지사(공용),1,DC콤보,부산광역시,사상구,부산광역시 사상구 백양대로700번길 24(덕포동 89),제한없음,35.16869689,128.989921
한국전력,북부산지사(공용),2,DC콤보,부산광역시,사상구,부산광역시 사상구 백양대로700번길 24(덕포동 89),제한없음,35.16869689,128.989921
한국전력,북부산지사(공용),3,AC완속,부산광역시,사상구,부산광역시 사상구 백양대로700번길 24(덕포동 89),제한없음,35.16869689,128.989921
한국전력,사상구청 부설주차장,1,DC차데모+AC3상+DC콤보,부산광역시,사상구,부산광역시 사상구 학감대로 242,제한없음,35.15255072,128.9914561
한국전력,사하구 제2청사,1,DC콤보,부산광역시,사하구,부산광역시 사하구 하신중앙로 185,제한없음,35.09496763,128.9615408
한국전력,사하구 제2청사,2,DC콤보,부산광역시,사하구,부산광역시 사하구 하신중앙로 185,제한없음,35.09496763,128.9615408
한국전력,상수도사업본부,1,DC콤보,부산광역시,부산진구,부산광역시 부산진구 중앙대로 955(양정동 273-20),제한없음,35.17516511,129.0723523
한국전력,선두구동 행정복지센터,1,DC콤보,부산광역시,금정구,부산광역시 금정구 두구죽전1길 13(선두구동 행정복지센터),제한없음,35.29827301,129.1133472
한국전력,수변어린이공원 공영주차장,1,DC콤보,부산광역시,수영구,부산광역시 수영구 광안해변로370번길 9-23,제한없음,35.15635841,129.1340728
한국전력,수영구 스포츠문화타운,1,DC콤보,부산광역시,수영구,부산광역시 수영구 수영로521번길 77(수영구 스포츠문화타운),제한없음,35.15293824,129.1074595
한국전력,수영구청,1,DC콤보,부산광역시,수영구,부산광역시 수영구 남천동로 100(148-15 수영구청),제한없음,35.14537016,129.1123694
한국전력,수정1동 공영주차장,1,DC콤보,부산광역시,동구,부산광역시 동구 홍곡남로 15(1043-60 수정1동공영주차장),제한없음,35.12482564,129.0389015
한국전력,수정공원상로 제1노상주차장,1,DC콤보,부산광역시,동구,부산광역시 동구 수정공원상로 76(수정동 1178-47),제한없음,35.12832489,129.0381782
한국전력,수정산 공영주차장,1,DC콤보,부산광역시,동구,부산광역시 동구 수정공원로 89(수정산 공영주차장),제한없음,35.13294177,129.0404691
한국전력,시립미술관,1,DC콤보,부산광역시,해운대구,부산광역시 해운대구 APEC로 58(1413 부산시립미술관),제한없음,35.16668716,129.1370273
한국전력,신세계 센텀점,1,DC콤보,부산광역시,해운대구,부산광역시 해운대구 센텀남대로 35주차장,제한없음,35.16881784,129.1295233
한국전력,신세계 센텀점,2,DC콤보,부산광역시,해운대구,부산광역시 해운대구 센텀남대로 35주차장,제한없음,35.16881784,129.1295233
한국전력,신천리 공영주차장,1,DC콤보,부산광역시,기장군,부산광역시 기장군 기장읍 신천리 1,제한없음,35.24418178,129.2226308
한국전력,신천리 공영주차장,2,DC콤보,부산광역시,기장군,부산광역시 기장군 기장읍 신천리 1,제한없음,35.24418178,129.2226308
한국전력,안평역,1,DC차데모+AC3상+DC콤보,부산광역시,기장군,부산광역시 기장군 철마면 안평리 543-23,제한없음,35.23753789,129.1720821
한국전력,연제구청,1,DC차데모+AC3상+DC콤보,부산광역시,연제구,부산광역시 연제구 연산동 1555,제한없음,35.17631676,129.0797856
한국전력,영도지사,1,DC차데모+AC3상+DC콤보,부산광역시,영도구,부산광역시 영도구 남항남로 9번길 61,제한없음,35.08848681,129.0364858
한국전력,영화의전당,1,DC콤보,부산광역시,해운대구,부산광역시 해운대구 수영강변대로 120(1467 영화의전당),제한없음,35.17103653,129.1270845
한국전력,을숙도 공영주차장,1,DC차데모+AC3상+DC콤보,부산광역시,사하구,부산광역시 사하구 낙동남로1233번길 테니스장 주차장을숙도 공원내 테니스장 주차장,제한없음,35.10448739,128.9459747
한국전력,을숙도 공영주차장,2,DC차데모+AC3상+DC콤보,부산광역시,사하구,부산광역시 사하구 낙동남로1233번길 테니스장 주차장을숙도 공원내 테니스장 주차장,제한없음,35.10448739,128.9459747
한국전력,이기대 제1공영주차장,1,DC콤보,부산광역시,남구,부산광역시 남구 이기대공원로 49(용호동 14-1),제한없음,35.12595997,129.1178171
한국전력,주례2동 행정복지센터,1,DC콤보,부산광역시,사상구,부산광역시 사상구 주례로10번길 15(주례2동 행정복지센터),제한없음,35.15006559,129.0104206
한국전력,중부산지사,1,DC차데모+AC3상+DC콤보,부산광역시,서구,부산광역시 서구 까치고개로 252,제한없음,35.09939044,129.0232307
한국전력,중부산지사,2,DC차데모+AC3상+DC콤보,부산광역시,서구,부산광역시 서구 까치고개로 252,제한없음,35.09939044,129.0232307
한국전력,지상변압기일체형(송정KT앞 ),1,DC차데모+AC3상+DC콤보,부산광역시,해운대구,부산광역시 해운대구 송정광어골로 42,제한없음,35.17775063,129.1965716
한국전력,청사포 공영주차장,1,DC콤보,부산광역시,해운대구,부산광역시 해운대구 청사포로 107-1(중동 552),제한없음,35.16215455,129.1918113
한국전력,태종대공원입구 주차장,1,DC차데모+AC3상+DC콤보,부산광역시,영도구,부산광역시 영도구 태종로833번길 23,제한없음,35.06214072,129.0820961
한국전력,태종대공원입구 주차장,2,DC차데모+AC3상+DC콤보,부산광역시,영도구,부산광역시 영도구 태종로833번길 23,제한없음,35.06214072,129.0820961
한국전력,한국폴리텍대학 부산캠퍼스,1,DC콤보,부산광역시,북구,부산광역시 북구 만덕대로155번길 99(22 한국폴리텍대학부산캠퍼스),제한없음,35.21847737,129.0189807
한국전력,해운대구청별관,1,DC콤보,부산광역시,해운대구,부산광역시 해운대구 재송동 1192,제한없음,35.18209789,129.1215497
한국전력,홈플러스 동래점,1,DC차데모+AC3상+DC콤보,부산광역시,동래구,부산광역시 동래구 중앙대로 1523(온천1동 153-8),제한없음,35.2212897,129.0855768
한국전력,홈플러스 서면점,1,DC차데모+AC3상+DC콤보,부산광역시,부산진구,부산광역시 부산진구 동천로 4,제한없음,35.14943623,129.0639756
한국전력,홈플러스 서면점,2,DC차데모+AC3상+DC콤보,부산광역시,부산진구,부산광역시 부산진구 동천로 4,제한없음,35.14943623,129.0639756
한국전력,홈플러스 센텀시티점,1,DC차데모+AC3상+DC콤보,부산광역시,해운대구,부산광역시 해운대구 센텀동로 6,제한없음,35.17091324,129.1336919
한국전기차충전서비스,(주)미라클,1,AC완속,부산광역시,영도구,부산광역시 영도구 대교로 1,제한없음,35.09267423,129.044247
한국전기차충전서비스,(주)미라클,2,AC완속,부산광역시,영도구,부산광역시 영도구 대교로 1,제한없음,35.09267423,129.044247
한국전기차충전서비스,가야KTe편한세상아파트,1,AC완속,부산광역시,부산진구,부산광역시 부산진구 가야대로 569,제한없음,35.15464746,129.0337624
한국전기차충전서비스,가야KTe편한세상아파트,2,AC완속,부산광역시,부산진구,부산광역시 부산진구 가야대로 569,제한없음,35.15464746,129.0337624
한국전기차충전서비스,가야KTe편한세상아파트,3,AC완속,부산광역시,부산진구,부산광역시 부산진구 가야대로 569,제한없음,35.15464746,129.0337624
한국전기차충전서비스,가야KTe편한세상아파트,4,AC완속,부산광역시,부산진구,부산광역시 부산진구 가야대로 569,제한없음,35.15464746,129.0337624
한국전기차충전서비스,가야KTe편한세상아파트,5,AC완속,부산광역시,부산진구,부산광역시 부산진구 가야대로 569,제한없음,35.15464746,129.0337624
한국전기차충전서비스,남구노인복지관,1,AC완속,부산광역시,남구,"부산광역시 남구 못골로 97-10 (대연동, 남구노인복지관)",제한없음,35.13618147,129.0932543
한국전기차충전서비스,남구종합복지관,1,AC완속,부산광역시,남구,"부산광역시 남구 동제당로 258 (우암동, 남구종합복지관)",제한없음,35.12717198,129.0749074
한국전기차충전서비스,롯데마트 부산점,1,DC차데모+AC3상+DC콤보,부산광역시,부산진구,부산광역시 부산진구 신천대로 241(257 롯데키즈마트),제한없음,35.16330698,129.0493159
한국전기차충전서비스,롯데마트 사하점,1,DC차데모+DC콤보,부산광역시,사하구,부산광역시 사하구 을숙도대로 610(1033-2 롯데마트),제한없음,35.08478346,128.97231
한국전기차충전서비스,롯데슈퍼 연산점,1,DC차데모+AC3상+DC콤보,부산광역시,연제구,부산광역시 연제구 과정로115(연제구 연산동 490-7),제한없음,35.18187524,129.1067539
한국전기차충전서비스,봉생병원,1,DC차데모+AC3상+DC콤보,부산광역시,동구,부산광역시 동구 중앙대로 401(682-1 봉생병원),제한없음,35.13086197,129.0505616
한국전기차충전서비스,부산가톨릭대학교,1,DC차데모+AC3상+DC콤보,부산광역시,금정구,부산광역시 금정구 오륜대로 57(9 부산가톨릭대학교),제한없음,35.24467531,129.096872
한국전기차충전서비스,부산사하우체국,1,DC차데모+AC3상+DC콤보,부산광역시,사하구,부산광역시 사하구 낙동대로 346(481-1 부산사하우체국),제한없음,35.10102496,128.9798137
한국전기차충전서비스,북구_금곡동행정복지센터,1,AC완속,부산광역시,북구,"부산광역시 북구 금곡대로 466 (금곡동, 금곡동 주민센터)",제한없음,35.2500788,129.0128482
한국전기차충전서비스,사하구_다대1동행정복지센터,1,AC완속,부산광역시,사하구,부산광역시 사하구 다대로530번길 7(다대동 933-1),제한없음,35.05916984,128.9713294
한국전기차충전서비스,사하구청,1,AC완속,부산광역시,사하구,부산광역시 사하구 낙동대로398번길 12옥외주차장,제한없음,35.10450196,128.9747902
한국전기차충전서비스,사하구청,2,AC완속,부산광역시,사하구,부산광역시 사하구 낙동대로398번길 12옥외주차장,제한없음,35.10450196,128.9747902
한국전기차충전서비스,신라대학교,1,DC차데모+AC3상+DC콤보,부산광역시,사상구,"부산광역시 사상구 백양대로700번길140, 신라대학교 체육관",제한없음,35.17204045,128.997735
한국전기차충전서비스,신라대학교,1,AC완속,부산광역시,사상구,"부산광역시 사상구 백양대로700번길 140 (괘법동, 신라대학교)",제한없음,35.17204045,128.997735
한국전기차충전서비스,신라대학교,2,AC완속,부산광역시,사상구,"부산광역시 사상구 백양대로700번길140, 신라대학교 체육관",제한없음,35.17204045,128.997735
한국전기차충전서비스,신라대학교,2,AC완속,부산광역시,사상구,"부산광역시 사상구 백양대로700번길 140 (괘법동, 신라대학교)",제한없음,35.17204045,128.997735
한국전기차충전서비스,신라대학교,3,AC완속,부산광역시,사상구,"부산광역시 사상구 백양대로700번길 140 (괘법동, 신라대학교)",제한없음,35.17204045,128.997735
한국전기차충전서비스,신라대학교,4,AC완속,부산광역시,사상구,"부산광역시 사상구 백양대로700번길 140 (괘법동, 신라대학교)",제한없음,35.17204045,128.997735
한국전기차충전서비스,신라대학교,5,AC완속,부산광역시,사상구,"부산광역시 사상구 백양대로700번길 140 (괘법동, 신라대학교)",제한없음,35.17204045,128.997735
한국전기차충전서비스,타샤모텔,1,AC완속,부산광역시,기장군,부산광역시 기장군 기장읍 기장대로413번길 32옥외주차장,제한없음,35.23484968,129.2152772
한국전기차충전서비스,타샤모텔,2,AC완속,부산광역시,기장군,부산광역시 기장군 기장읍 기장대로413번길 32옥외주차장,제한없음,35.23484968,129.2152772
한국전기차충전서비스,티티호텔주식회사,1,AC완속,부산광역시,부산진구,부산광역시 부산진구 새싹로 35(부전동 401-12),제한없음,35.16067332,129.0564452
한국전기차충전서비스,티티호텔주식회사,2,AC완속,부산광역시,부산진구,부산광역시 부산진구 새싹로 35(부전동 401-12),제한없음,35.16067332,129.0564452
한국전기차충전서비스,하단청구아파트,1,AC완속,부산광역시,사하구,부산광역시 사하구 낙동대로520번길 14(717-1 하단청구아파트),제한없음,35.1109308,128.9669958
한국전기차충전서비스,하단청구아파트,2,AC완속,부산광역시,사하구,부산광역시 사하구 낙동대로520번길 14(717-1 하단청구아파트),제한없음,35.1109308,128.9669958
한국전기차충전서비스,하단청구아파트,3,AC완속,부산광역시,사하구,부산광역시 사하구 낙동대로520번길 14(717-1 하단청구아파트),제한없음,35.1109308,128.9669958
한국전기차충전서비스,하단청구아파트,4,AC완속,부산광역시,사하구,부산광역시 사하구 낙동대로520번길 14(717-1 하단청구아파트),제한없음,35.1109308,128.9669958
한국전기차충전서비스,홈플러스 가야점,1,DC차데모+AC3상+DC콤보,부산광역시,부산진구,부산광역시 부산진구 가야대로 506(624-7 가야홈플러스),제한없음,35.15246571,129.0273187
한국전기차충전서비스,홈플러스 가야점,2,DC차데모+AC3상+DC콤보,부산광역시,부산진구,부산광역시 부산진구 가야대로 506(624-7 가야홈플러스),제한없음,35.15246571,129.0273187
차지비,SK VIEW 1단지(에스케이뷰아파트),1,AC완속,부산광역시,금정구,"부산광역시 금정구 금샘로246번길 18 (구서동, 구서에스케이뷰1단지)",제한없음,35.24384181,129.0855717
차지비,SK VIEW 1단지(에스케이뷰아파트),2,AC완속,부산광역시,금정구,"부산광역시 금정구 금샘로246번길 18 (구서동, 구서에스케이뷰1단지)",제한없음,35.24384181,129.0855717
차지비,SK VIEW 1단지(에스케이뷰아파트),3,AC완속,부산광역시,금정구,"부산광역시 금정구 금샘로246번길 18 (구서동, 구서에스케이뷰1단지)",제한없음,35.24384181,129.0855717
차지비,SK VIEW 1단지(에스케이뷰아파트),4,AC완속,부산광역시,금정구,"부산광역시 금정구 금샘로246번길 18 (구서동, 구서에스케이뷰1단지)",제한없음,35.24384181,129.0855717
차지비,SK VIEW 1단지(에스케이뷰아파트),5,AC완속,부산광역시,금정구,"부산광역시 금정구 금샘로246번길 18 (구서동, 구서에스케이뷰1단지)",제한없음,35.24384181,129.0855717
차지비,SK VIEW 2단지(에스케이뷰아파트),1,AC완속,부산광역시,금정구,"부산광역시 금정구 금샘로245번길 11 (구서동, 구서에스케이뷰2단지)(1070 (구서에스케이뷰2단지))",제한없음,35.24481121,129.0846392
차지비,SK VIEW 2단지(에스케이뷰아파트),2,AC완속,부산광역시,금정구,"부산광역시 금정구 금샘로245번길 11 (구서동, 구서에스케이뷰2단지)(1070 (구서에스케이뷰2단지))",제한없음,35.24481121,129.0846392
차지비,개금동반도보라아파트,1,AC완속,부산광역시,부산진구,"부산광역시 부산진구 개금본동로 40 (개금동, 반도보라아파트) 104동(19-6 (반도보라아파트))",제한없음,35.15911113,129.022823
차지비,개금동반도보라아파트,2,AC완속,부산광역시,부산진구,"부산광역시 부산진구 개금본동로 40 (개금동, 반도보라아파트) 104동(19-6 (반도보라아파트))",제한없음,35.15911113,129.022823
차지비,개금동반도보라아파트,3,AC완속,부산광역시,부산진구,"부산광역시 부산진구 개금본동로 40 (개금동, 반도보라아파트) 104동(19-6 (반도보라아파트))",제한없음,35.15911113,129.022823
차지비,거제청구하이츠,1,AC완속,부산광역시,연제구,"부산광역시 연제구 화지로 95 (거제동, 거제청구하이츠)(769-78 (거제청구하이츠))",제한없음,35.18334055,129.0658215
차지비,거제청구하이츠,2,AC완속,부산광역시,연제구,"부산광역시 연제구 화지로 95 (거제동, 거제청구하이츠)(769-78 (거제청구하이츠))",제한없음,35.18334055,129.0658215
차지비,경남마리나아파트,1,AC완속,부산광역시,해운대구,"부산광역시 해운대구 해운대해변로 99 (우동, 경남마리나아파트) 101동~108동",제한없음,35.16115865,129.1425594
차지비,경남마리나아파트,2,AC완속,부산광역시,해운대구,"부산광역시 해운대구 해운대해변로 99 (우동, 경남마리나아파트) 101동~108동",제한없음,35.16115865,129.1425594
차지비,경남마리나아파트,3,AC완속,부산광역시,해운대구,"부산광역시 해운대구 해운대해변로 99 (우동, 경남마리나아파트) 101동~108동",제한없음,35.16115865,129.1425594
차지비,경남마리나아파트,4,AC완속,부산광역시,해운대구,"부산광역시 해운대구 해운대해변로 99 (우동, 경남마리나아파트) 101동~108동",제한없음,35.16115865,129.1425594
차지비,경남마리나아파트,5,AC완속,부산광역시,해운대구,"부산광역시 해운대구 해운대해변로 99 (우동, 경남마리나아파트) 101동~108동",제한없음,35.16115865,129.1425594
차지비,경남선경아파트,1,AC완속,부산광역시,해운대구,"부산광역시 해운대구 청사포로 27 (좌동, 경남선경아파트)",제한없음,35.16652209,129.1864228
차지비,경남선경아파트,2,AC완속,부산광역시,해운대구,"부산광역시 해운대구 청사포로 27 (좌동, 경남선경아파트)",제한없음,35.16652209,129.1864228
차지비,경남선경아파트,3,AC완속,부산광역시,해운대구,"부산광역시 해운대구 청사포로 27 (좌동, 경남선경아파트)",제한없음,35.16652209,129.1864228
차지비,경남선경아파트,4,AC완속,부산광역시,해운대구,"부산광역시 해운대구 청사포로 27 (좌동, 경남선경아파트)",제한없음,35.16652209,129.1864228
차지비,경남선경아파트,5,AC완속,부산광역시,해운대구,"부산광역시 해운대구 청사포로 27 (좌동, 경남선경아파트)",제한없음,35.16652209,129.1864228
차지비,광안동비치그린아파트,1,AC완속,부산광역시,수영구,부산광역시 수영구 광일로 49,제한없음,35.16307892,129.1092658
차지비,광안동비치그린아파트,2,AC완속,부산광역시,수영구,부산광역시 수영구 광일로 49,제한없음,35.16307892,129.1092658
차지비,광안동비치그린아파트,3,AC완속,부산광역시,수영구,부산광역시 수영구 광일로 49,제한없음,35.16307892,129.1092658
차지비,광안동비치그린아파트,4,AC완속,부산광역시,수영구,부산광역시 수영구 광일로 49,제한없음,35.16307892,129.1092658
차지비,광안동비치그린아파트,5,AC완속,부산광역시,수영구,부산광역시 수영구 광일로 49,제한없음,35.16307892,129.1092658
차지비,광안쌍용예가디오션아파트,1,AC완속,부산광역시,수영구,"부산광역시 수영구 광안로 20103동 지하1층 4,5/ 102동 지하1층 B07/ 105동 지하1층 R20",제한없음,35.15605521,129.1146525
차지비,광안쌍용예가디오션아파트,2,AC완속,부산광역시,수영구,"부산광역시 수영구 광안로 20103동 지하1층 4,5/ 102동 지하1층 B07/ 105동 지하1층 R20",제한없음,35.15605521,129.1146525
차지비,광안쌍용예가디오션아파트,3,AC완속,부산광역시,수영구,"부산광역시 수영구 광안로 20103동 지하1층 4,5/ 102동 지하1층 B07/ 105동 지하1층 R20",제한없음,35.15605521,129.1146525
차지비,광안쌍용예가디오션아파트,4,AC완속,부산광역시,수영구,"부산광역시 수영구 광안로 20103동 지하1층 4,5/ 102동 지하1층 B07/ 105동 지하1층 R20",제한없음,35.15605521,129.1146525
차지비,광안쌍용예가디오션아파트,5,AC완속,부산광역시,수영구,"부산광역시 수영구 광안로 20103동 지하1층 4,5/ 102동 지하1층 B07/ 105동 지하1층 R20",제한없음,35.15605521,129.1146525
차지비,광안쌍용예가디오션아파트,6,AC완속,부산광역시,수영구,"부산광역시 수영구 광안로 20103동 지하1층 4,5/ 102동 지하1층 B07/ 105동 지하1층 R20",제한없음,35.15605521,129.1146525
차지비,광안쌍용예가디오션아파트,7,AC완속,부산광역시,수영구,"부산광역시 수영구 광안로 20103동 지하1층 4,5/ 102동 지하1층 B07/ 105동 지하1층 R20",제한없음,35.15605521,129.1146525
차지비,광안쌍용예가디오션아파트,8,AC완속,부산광역시,수영구,"부산광역시 수영구 광안로 20103동 지하1층 4,5/ 102동 지하1층 B07/ 105동 지하1층 R20",제한없음,35.15605521,129.1146525
차지비,광안쌍용예가디오션아파트,9,AC완속,부산광역시,수영구,"부산광역시 수영구 광안로 20103동 지하1층 4,5/ 102동 지하1층 B07/ 105동 지하1층 R20",제한없음,35.15605521,129.1146525
차지비,구평동한신휴플러스아파트,1,AC완속,부산광역시,사하구,부산광역시 사하구 을숙도대로709번길 22 (구평동     한신휴플러스아파트),제한없음,35.08636434,128.9849744
차지비,구포삼정그린코아백팔동,1,AC완속,부산광역시,북구,"부산광역시 북구 백양대로1016번길 10 (구포동, 삼정그린코아아파트) 101동~107동108동 110동 지하주차장 ",제한없음,35.19551229,128.9950713
차지비,구포삼정그린코아백팔동,2,AC완속,부산광역시,북구,"부산광역시 북구 백양대로1016번길 10 (구포동, 삼정그린코아아파트) 101동~107동108동 110동 지하주차장 ",제한없음,35.19551229,128.9950713
차지비,구포삼정그린코아백팔동,3,AC완속,부산광역시,북구,"부산광역시 북구 백양대로1016번길 10 (구포동, 삼정그린코아아파트) 101동~107동108동 110동 지하주차장 ",제한없음,35.19551229,128.9950713
차지비,구포유림노르웨이숲,1,AC완속,부산광역시,북구,"부산광역시 북구 낙동북로 737 (구포동, 유림노르웨이숲아파트) 101동~113동",제한없음,35.19617522,129.0029493
차지비,구포유림노르웨이숲,2,AC완속,부산광역시,북구,"부산광역시 북구 낙동북로 737 (구포동, 유림노르웨이숲아파트) 101동~113동",제한없음,35.19617522,129.0029493
차지비,구포유림노르웨이숲,3,AC완속,부산광역시,북구,"부산광역시 북구 낙동북로 737 (구포동, 유림노르웨이숲아파트) 101동~113동",제한없음,35.19617522,129.0029493
차지비,구포유림노르웨이숲,4,AC완속,부산광역시,북구,"부산광역시 북구 낙동북로 737 (구포동, 유림노르웨이숲아파트) 101동~113동",제한없음,35.19617522,129.0029493
차지비,구포유림노르웨이숲,5,AC완속,부산광역시,북구,"부산광역시 북구 낙동북로 737 (구포동, 유림노르웨이숲아파트) 101동~113동",제한없음,35.19617522,129.0029493
차지비,구포유림노르웨이숲2차,1,AC완속,부산광역시,북구,"부산광역시 북구 낙동북로 751 (구포동, 구포유림노르웨이숲2차아파트)202동 지하주차장 출구앞",제한없음,35.19808524,129.0033857
차지비,구포유림노르웨이숲2차,2,AC완속,부산광역시,북구,"부산광역시 북구 낙동북로 751 (구포동, 구포유림노르웨이숲2차아파트)202동 지하주차장 출구앞",제한없음,35.19808524,129.0033857
차지비,금사대우아파트,1,AC완속,부산광역시,금정구,"부산광역시 금정구 삼어로 207 (금사동, 대우금사아파트) 101동, 106동",제한없음,35.21375403,129.1175319
차지비,금사대우아파트,2,AC완속,부산광역시,금정구,"부산광역시 금정구 삼어로 207 (금사동, 대우금사아파트) 101동, 106동",제한없음,35.21375403,129.1175319
차지비,금사대우아파트,3,AC완속,부산광역시,금정구,"부산광역시 금정구 삼어로 207 (금사동, 대우금사아파트) 101동, 106동",제한없음,35.21375403,129.1175319
차지비,기장포스코더샵아파트,1,AC완속,부산광역시,기장군,"부산광역시 기장군 기장읍 차성동로116번길 12 (동부리, 포스코더샵)",제한없음,35.24726576,129.2183556
차지비,다대몰운대아파트102동,1,AC완속,부산광역시,사하구,"부산광역시 사하구 다대낙조2길 216 (다대동, 몰운대그린비치아파트)102동 지하주차장",제한없음,35.05131057,128.9673989
차지비,다대몰운대아파트102동,2,AC완속,부산광역시,사하구,"부산광역시 사하구 다대낙조2길 216 (다대동, 몰운대그린비치아파트)102동 지하주차장",제한없음,35.05131057,128.9673989
차지비,다대몰운대아파트113동,1,AC완속,부산광역시,사하구,"부산광역시 사하구 다대낙조2길 215 (다대동, 몰운대그린비치아파트) 112동~117동,상가동113동지하주차장",제한없음,35.05046051,128.9695783
차지비,다대몰운대아파트113동,2,AC완속,부산광역시,사하구,"부산광역시 사하구 다대낙조2길 215 (다대동, 몰운대그린비치아파트) 112동~117동,상가동113동지하주차장",제한없음,35.05046051,128.9695783
차지비,다대몰운대아파트113동,3,AC완속,부산광역시,사하구,"부산광역시 사하구 다대낙조2길 215 (다대동, 몰운대그린비치아파트) 112동~117동,상가동113동지하주차장",제한없음,35.05046051,128.9695783
차지비,다대푸른아파트,1,AC완속,부산광역시,사하구,"부산광역시 사하구 다대낙조2길 11 (다대동, 다대푸른아파트) 101동~104동(1548-13 (다대푸른아파트))",제한없음,35.05164821,128.9650778
차지비,다대푸른아파트,2,AC완속,부산광역시,사하구,"부산광역시 사하구 다대낙조2길 11 (다대동, 다대푸른아파트) 101동~104동(1548-13 (다대푸른아파트))",제한없음,35.05164821,128.9650778
차지비,다대푸른아파트,3,AC완속,부산광역시,사하구,"부산광역시 사하구 다대낙조2길 11 (다대동, 다대푸른아파트) 101동~104동(1548-13 (다대푸른아파트))",제한없음,35.05164821,128.9650778
차지비,대라씨엘늘채움아파트,1,AC완속,부산광역시,기장군,"부산광역시 기장군 기장읍 차성남로 8-18 (대라리, 씨엘늘채움아파트)(925 (씨엘늘채움아파트))",제한없음,35.24107309,129.2086584
차지비,대림에이스타운,1,AC완속,부산광역시,중구,"부산광역시 중구 법수길 72 (보수동1가, 대림에이스타운)(41-1 (대림에이스타운))",제한없음,35.10664466,129.0253604
차지비,대연극동아파트,1,AC완속,부산광역시,남구,"부산광역시 남구 진남로36번길 50 (대연동, 대연극동아파트)(282-1 (대연극동아파트))",제한없음,35.14048566,129.09158
차지비,대연극동아파트,2,AC완속,부산광역시,남구,"부산광역시 남구 진남로36번길 50 (대연동, 대연극동아파트)(282-1 (대연극동아파트))",제한없음,35.14048566,129.09158
차지비,대연동 청구아파트,1,AC완속,부산광역시,남구,"부산광역시 남구 황령대로319번가길 110 (대연동, 대연청구아파트) 101동~111동(243-23 (대연청구아파트))",제한없음,35.15397091,129.0895984
차지비,대연동 청구아파트,2,AC완속,부산광역시,남구,"부산광역시 남구 황령대로319번가길 110 (대연동, 대연청구아파트) 101동~111동(243-23 (대연청구아파트))",제한없음,35.15397091,129.0895984
차지비,대연동 청구아파트,3,AC완속,부산광역시,남구,"부산광역시 남구 황령대로319번가길 110 (대연동, 대연청구아파트) 101동~111동(243-23 (대연청구아파트))",제한없음,35.15397091,129.0895984
차지비,대연동 청구아파트,4,AC완속,부산광역시,남구,"부산광역시 남구 황령대로319번가길 110 (대연동, 대연청구아파트) 101동~111동(243-23 (대연청구아파트))",제한없음,35.15397091,129.0895984
차지비,대연동대우그린1차아파트,1,AC완속,부산광역시,남구,"부산광역시 남구 황령대로319번가길 190-6 (대연동, 대우그린1차아파트)",제한없음,35.15109408,129.0890064
차지비,대연동대우그린1차아파트,2,AC완속,부산광역시,남구,"부산광역시 남구 황령대로319번가길 190-6 (대연동, 대우그린1차아파트)",제한없음,35.15109408,129.0890064
차지비,대연동대우그린1차아파트,3,AC완속,부산광역시,남구,"부산광역시 남구 황령대로319번가길 190-6 (대연동, 대우그린1차아파트)",제한없음,35.15109408,129.0890064
차지비,대연동대우그린1차아파트,4,AC완속,부산광역시,남구,"부산광역시 남구 황령대로319번가길 190-6 (대연동, 대우그린1차아파트)",제한없음,35.15109408,129.0890064
차지비,대우에덴프라자,1,AC완속,부산광역시,사하구,"부산광역시 사하구 낙동대로 542 (하단동, 대우에덴프라자)지하4층 장애인주차구역 옆",제한없음,35.11246424,128.9647862
차지비,대원칸타빌멤버스아파트,1,AC완속,부산광역시,부산진구,"부산광역시 부산진구 거제대로 26 (양정동, 대원칸타빌멤버스아파트)",제한없음,35.17156839,129.0686012
차지비,대원칸타빌멤버스아파트,2,AC완속,부산광역시,부산진구,"부산광역시 부산진구 거제대로 26 (양정동, 대원칸타빌멤버스아파트)",제한없음,35.17156839,129.0686012
차지비,대원칸타빌멤버스아파트,3,AC완속,부산광역시,부산진구,"부산광역시 부산진구 거제대로 26 (양정동, 대원칸타빌멤버스아파트)",제한없음,35.17156839,129.0686012
차지비,대원칸타빌멤버스아파트,4,AC완속,부산광역시,부산진구,"부산광역시 부산진구 거제대로 26 (양정동, 대원칸타빌멤버스아파트)",제한없음,35.17156839,129.0686012
차지비,대원칸타빌멤버스아파트,5,AC완속,부산광역시,부산진구,"부산광역시 부산진구 거제대로 26 (양정동, 대원칸타빌멤버스아파트)",제한없음,35.17156839,129.0686012
차지비,더샵파크리치아파트,1,AC완속,부산광역시,수영구,"부산광역시 수영구 연수로315번길 16 (망미동, 포스코더샵파크리치)",제한없음,35.17368242,129.1073397
차지비,더샵파크리치아파트,2,AC완속,부산광역시,수영구,"부산광역시 수영구 연수로315번길 16 (망미동, 포스코더샵파크리치)",제한없음,35.17368242,129.1073397
차지비,더샵파크리치아파트,3,AC완속,부산광역시,수영구,"부산광역시 수영구 연수로315번길 16 (망미동, 포스코더샵파크리치)",제한없음,35.17368242,129.1073397
차지비,더샵파크리치아파트,4,AC완속,부산광역시,수영구,"부산광역시 수영구 연수로315번길 16 (망미동, 포스코더샵파크리치)",제한없음,35.17368242,129.1073397
차지비,덕천동롯데아파트,1,AC완속,부산광역시,북구,"부산광역시 북구 함박봉로 26 (덕천동, 덕천동롯데아파트) 101동~107동108동 109동 지하2층 주차장",제한없음,35.20955642,129.0210636
차지비,덕천동롯데아파트,2,AC완속,부산광역시,북구,"부산광역시 북구 함박봉로 26 (덕천동, 덕천동롯데아파트) 101동~107동108동 109동 지하2층 주차장",제한없음,35.20955642,129.0210636
차지비,덕천동롯데아파트,3,AC완속,부산광역시,북구,"부산광역시 북구 함박봉로 26 (덕천동, 덕천동롯데아파트) 101동~107동108동 109동 지하2층 주차장",제한없음,35.20955642,129.0210636
차지비,덕천동롯데아파트,4,AC완속,부산광역시,북구,"부산광역시 북구 함박봉로 26 (덕천동, 덕천동롯데아파트) 101동~107동108동 109동 지하2층 주차장",제한없음,35.20955642,129.0210636
차지비,동남권원자력의학원,1,AC완속,부산광역시,기장군,부산광역시 기장군 장안읍 좌동길 40,제한없음,35.3218427,129.2443307
차지비,동남권원자력의학원,2,AC완속,부산광역시,기장군,부산광역시 기장군 장안읍 좌동길 40,제한없음,35.3218427,129.2443307
차지비,동남권원자력의학원,3,AC완속,부산광역시,기장군,부산광역시 기장군 장안읍 좌동길 40,제한없음,35.3218427,129.2443307
차지비,동남권원자력의학원,4,AC완속,부산광역시,기장군,부산광역시 기장군 장안읍 좌동길 40,제한없음,35.3218427,129.2443307
차지비,동남권원자력의학원,5,AC완속,부산광역시,기장군,부산광역시 기장군 장안읍 좌동길 40,제한없음,35.3218427,129.2443307
차지비,동래동일스위트,1,AC완속,부산광역시,동래구,부산광역시 동래구 시실로 119동래동일스위트아파트 107동 지하1층 42기둥(3기)/ 104동 지하1층 35기둥(3기)(명장동 617),제한없음,35.21348128,129.094164
차지비,동래동일스위트,2,AC완속,부산광역시,동래구,부산광역시 동래구 시실로 119동래동일스위트아파트 107동 지하1층 42기둥(3기)/ 104동 지하1층 35기둥(3기)(명장동 617),제한없음,35.21348128,129.094164
차지비,동래동일스위트,3,AC완속,부산광역시,동래구,부산광역시 동래구 시실로 119동래동일스위트아파트 107동 지하1층 42기둥(3기)/ 104동 지하1층 35기둥(3기)(명장동 617),제한없음,35.21348128,129.094164
차지비,동래동일스위트,4,AC완속,부산광역시,동래구,부산광역시 동래구 시실로 119동래동일스위트아파트 107동 지하1층 42기둥(3기)/ 104동 지하1층 35기둥(3기)(명장동 617),제한없음,35.21348128,129.094164
차지비,동래동일스위트,5,AC완속,부산광역시,동래구,부산광역시 동래구 시실로 119동래동일스위트아파트 107동 지하1층 42기둥(3기)/ 104동 지하1층 35기둥(3기)(명장동 617),제한없음,35.21348128,129.094164
차지비,동래동일스위트,6,AC완속,부산광역시,동래구,부산광역시 동래구 시실로 119동래동일스위트아파트 107동 지하1층 42기둥(3기)/ 104동 지하1층 35기둥(3기)(명장동 617),제한없음,35.21348128,129.094164
차지비,동부산뜨란채,1,AC완속,부산광역시,기장군,부산광역시 기장군 기장읍 기장대로 67201동 지하1층 A3기둥 유수검지장치실옆 (2기),제한없음,35.20395965,129.2057682
차지비,동부산뜨란채,2,AC완속,부산광역시,기장군,부산광역시 기장군 기장읍 기장대로 67201동 지하1층 A3기둥 유수검지장치실옆 (2기),제한없음,35.20395965,129.2057682
차지비,동삼동에덴금호타운,1,AC완속,부산광역시,영도구,부산광역시 영도구 태종로 702 (동삼동     에덴금호타운) 101동    103동,제한없음,35.07103109,129.0757126
차지비,동삼동에덴금호타운,2,AC완속,부산광역시,영도구,부산광역시 영도구 태종로 702 (동삼동     에덴금호타운) 101동    103동,제한없음,35.07103109,129.0757126
차지비,동원로얄듀크아파트,1,AC완속,부산광역시,북구,"부산광역시 북구 금곡대로 224 (화명동, 동원로얄듀크)",제한없음,35.22830749,129.0126636
차지비,동원로얄듀크아파트,2,AC완속,부산광역시,북구,"부산광역시 북구 금곡대로 224 (화명동, 동원로얄듀크)",제한없음,35.22830749,129.0126636
차지비,동원로얄듀크아파트,3,AC완속,부산광역시,북구,"부산광역시 북구 금곡대로 224 (화명동, 동원로얄듀크)",제한없음,35.22830749,129.0126636
차지비,동원로얄듀크아파트,4,AC완속,부산광역시,북구,"부산광역시 북구 금곡대로 224 (화명동, 동원로얄듀크)",제한없음,35.22830749,129.0126636
차지비,동의병원,1,AC완속,부산광역시,부산진구,"부산광역시 부산진구 양정로 62 (양정동, 동의의료원,동의병원,동의대학교한방병원)(산46-2 (동의의료원,동의병원,동의대학교한방병원))",제한없음,35.169949,129.0759208
차지비,동의병원,2,AC완속,부산광역시,부산진구,"부산광역시 부산진구 양정로 62 (양정동, 동의의료원,동의병원,동의대학교한방병원)(산46-2 (동의의료원,동의병원,동의대학교한방병원))",제한없음,35.169949,129.0759208
차지비,동의병원,3,AC완속,부산광역시,부산진구,"부산광역시 부산진구 양정로 62 (양정동, 동의의료원,동의병원,동의대학교한방병원)(산46-2 (동의의료원,동의병원,동의대학교한방병원))",제한없음,35.169949,129.0759208
차지비,동의병원,4,AC완속,부산광역시,부산진구,"부산광역시 부산진구 양정로 62 (양정동, 동의의료원,동의병원,동의대학교한방병원)(산46-2 (동의의료원,동의병원,동의대학교한방병원))",제한없음,35.169949,129.0759208
차지비,만덕3휴먼시아,1,AC완속,부산광역시,북구,"부산광역시 북구 만덕1로51번길 11 (만덕동, 만덕3휴먼시아) 201동~204동",제한없음,35.21351205,129.0313938
차지비,만덕3휴먼시아,2,AC완속,부산광역시,북구,"부산광역시 북구 만덕1로51번길 11 (만덕동, 만덕3휴먼시아) 201동~204동",제한없음,35.21351205,129.0313938
차지비,만덕3휴먼시아,3,AC완속,부산광역시,북구,"부산광역시 북구 만덕1로51번길 11 (만덕동, 만덕3휴먼시아) 201동~204동",제한없음,35.21351205,129.0313938
차지비,명륜2차아이파크1단지,1,AC완속,부산광역시,동래구,부산광역시 동래구 시실로 49112동 지하 4층 52기둥(782 명륜2차아이파크 112동 지하 4층 52기둥),제한없음,35.21641777,129.0872413
차지비,명륜2차아이파크1단지,2,AC완속,부산광역시,동래구,부산광역시 동래구 시실로 49112동 지하 4층 52기둥(782 명륜2차아이파크 112동 지하 4층 52기둥),제한없음,35.21641777,129.0872413
차지비,명륜2차아이파크1단지,3,AC완속,부산광역시,동래구,부산광역시 동래구 시실로 49112동 지하 4층 52기둥(782 명륜2차아이파크 112동 지하 4층 52기둥),제한없음,35.21641777,129.0872413
차지비,명륜2차아이파크1단지,4,AC완속,부산광역시,동래구,부산광역시 동래구 시실로 49112동 지하 4층 52기둥(782 명륜2차아이파크 112동 지하 4층 52기둥),제한없음,35.21641777,129.0872413
차지비,명륜2차아이파크2단지,1,AC완속,부산광역시,동래구,부산광역시 동래구 시실로 73-6지하3층 205동 벽면,제한없음,35.21446945,129.0909187
차지비,명륜2차아이파크2단지,2,AC완속,부산광역시,동래구,부산광역시 동래구 시실로 73-6지하3층 205동 벽면,제한없음,35.21446945,129.0909187
차지비,명지1차금강펜테리움센트럴파크,1,AC완속,부산광역시,강서구,"부산광역시 강서구 명지국제5로 59 (명지동, 명지1차금강펜테리움센트럴파크)104동1,2라인 지하",제한없음,35.10072192,128.9186693
차지비,명지1차금강펜테리움센트럴파크,2,AC완속,부산광역시,강서구,"부산광역시 강서구 명지국제5로 59 (명지동, 명지1차금강펜테리움센트럴파크)104동1,2라인 지하",제한없음,35.10072192,128.9186693
차지비,명지1차금강펜테리움센트럴파크,3,AC완속,부산광역시,강서구,"부산광역시 강서구 명지국제5로 59 (명지동, 명지1차금강펜테리움센트럴파크)104동1,2라인 지하",제한없음,35.10072192,128.9186693
차지비,명지1차금강펜테리움센트럴파크,4,AC완속,부산광역시,강서구,"부산광역시 강서구 명지국제5로 59 (명지동, 명지1차금강펜테리움센트럴파크)104동1,2라인 지하",제한없음,35.10072192,128.9186693
차지비,명지1차금강펜테리움센트럴파크,5,AC완속,부산광역시,강서구,"부산광역시 강서구 명지국제5로 59 (명지동, 명지1차금강펜테리움센트럴파크)104동1,2라인 지하",제한없음,35.10072192,128.9186693
차지비,명지롯데캐슬아파트,4,AC완속,부산광역시,강서구,부산광역시 강서구 명지오션시티11로 84 (명지동     롯데캐슬아파트),제한없음,35.08399249,128.9049877
차지비,명지오션시티,1,AC완속,부산광역시,강서구,부산광역시 강서구 명지오션시티9로 50 (명지동)(명지동 3229-26),제한없음,35.08781027,128.9020304
차지비,명지오션시티,2,AC완속,부산광역시,강서구,부산광역시 강서구 명지오션시티9로 50 (명지동)(명지동 3229-26),제한없음,35.08781027,128.9020304
차지비,명지오션시티삼정그린코아,1,AC완속,부산광역시,강서구,"부산광역시 강서구 명지오션시티10로 114 (명지동, 명지오션시티삼정그린코아)107동 34입구",제한없음,35.08633055,128.9081799
차지비,명지오션시티삼정그린코아,2,AC완속,부산광역시,강서구,"부산광역시 강서구 명지오션시티10로 114 (명지동, 명지오션시티삼정그린코아)107동 34입구",제한없음,35.08633055,128.9081799
차지비,명지오션시티삼정그린코아,3,AC완속,부산광역시,강서구,"부산광역시 강서구 명지오션시티10로 114 (명지동, 명지오션시티삼정그린코아)107동 34입구",제한없음,35.08633055,128.9081799
차지비,모라동골든파크,1,AC완속,부산광역시,사상구,부산광역시 사상구 사상로 508 (모라동     모라동골든파크),제한없음,35.18948152,128.9891053
차지비,문현동골든벨류빌,1,AC완속,부산광역시,남구,"부산광역시 남구 전포대로77번길 19 (문현동, 골든벨류빌)(765-1 (골든벨류빌))",제한없음,35.1435822,129.0655503
차지비,반송동삼한그린타운1차,1,AC완속,부산광역시,해운대구,부산광역시 해운대구 신반송로 171 (반송동     삼한그린타운),제한없음,35.2283609,129.1612205
차지비,반송동삼한그린타운1차,2,AC완속,부산광역시,해운대구,부산광역시 해운대구 신반송로 171 (반송동     삼한그린타운),제한없음,35.2283609,129.1612205
차지비,반송동삼한그린타운1차,3,AC완속,부산광역시,해운대구,부산광역시 해운대구 신반송로 171 (반송동     삼한그린타운),제한없음,35.2283609,129.1612205
차지비,반송동삼한그린타운1차,4,AC완속,부산광역시,해운대구,부산광역시 해운대구 신반송로 171 (반송동     삼한그린타운),제한없음,35.2283609,129.1612205
차지비,반송벽산삼협육동,1,AC완속,부산광역시,해운대구,"부산광역시 해운대구 신반송로 29 (반송동, 벽산삼협한솔아파트)106동 지하주차장",제한없음,35.22677964,129.160668
차지비,반송벽산삼협한솔101동,1,AC완속,부산광역시,해운대구,"부산광역시 해운대구 신반송로 29 (반송동, 벽산삼협한솔아파트)101동 지하주차장",제한없음,35.22677964,129.160668
차지비,반송벽산삼협한솔103동,2,AC완속,부산광역시,해운대구,"부산광역시 해운대구 신반송로 29 (반송동, 벽산삼협한솔아파트)103동 지하주차장",제한없음,35.22677964,129.160668
차지비,반송벽산삼협한솔103동,3,AC완속,부산광역시,해운대구,"부산광역시 해운대구 신반송로 29 (반송동, 벽산삼협한솔아파트)103동 지하주차장",제한없음,35.22677964,129.160668
차지비,벽산2차아파트,1,AC완속,부산광역시,해운대구,부산광역시 해운대구 좌동순환로299번길 11 (좌동     벽산2차아파트),제한없음,35.16957101,129.1850488
차지비,벽산2차아파트,2,AC완속,부산광역시,해운대구,부산광역시 해운대구 좌동순환로299번길 11 (좌동     벽산2차아파트),제한없음,35.16957101,129.1850488
차지비,벽산2차아파트,3,AC완속,부산광역시,해운대구,부산광역시 해운대구 좌동순환로299번길 11 (좌동     벽산2차아파트),제한없음,35.16957101,129.1850488
차지비,벽산2차아파트,4,AC완속,부산광역시,해운대구,부산광역시 해운대구 좌동순환로299번길 11 (좌동     벽산2차아파트),제한없음,35.16957101,129.1850488
차지비,벽산2차아파트,5,AC완속,부산광역시,해운대구,부산광역시 해운대구 좌동순환로299번길 11 (좌동     벽산2차아파트),제한없음,35.16957101,129.1850488
차지비,부경대학교,1,AC완속,부산광역시,남구,"부산광역시 남구 용소로 45 (대연동, 부경대학교대연캠퍼스)",제한없음,35.13117521,129.1048655
차지비,부경대학교,2,AC완속,부산광역시,남구,"부산광역시 남구 용소로 45 (대연동, 부경대학교대연캠퍼스)",제한없음,35.13117521,129.1048655
차지비,부곡SK아파트,1,AC완속,부산광역시,금정구,"부산광역시 금정구 수림로 12 (부곡동, 에스케이아파트) 101동~111동",제한없음,35.24056974,129.0923931
차지비,부곡SK아파트,2,AC완속,부산광역시,금정구,"부산광역시 금정구 수림로 12 (부곡동, 에스케이아파트) 101동~111동",제한없음,35.24056974,129.0923931
차지비,부곡SK아파트,3,AC완속,부산광역시,금정구,"부산광역시 금정구 수림로 12 (부곡동, 에스케이아파트) 101동~111동",제한없음,35.24056974,129.0923931
차지비,부곡SK아파트,4,AC완속,부산광역시,금정구,"부산광역시 금정구 수림로 12 (부곡동, 에스케이아파트) 101동~111동",제한없음,35.24056974,129.0923931
차지비,부곡동대동다숲아파트,1,AC완속,부산광역시,금정구,"부산광역시 금정구 부곡로 32-12 (부곡동, 대동다숲아파트)(788 (대동다숲아파트))",제한없음,35.21886438,129.0892214
차지비,부곡동대동다숲아파트,2,AC완속,부산광역시,금정구,"부산광역시 금정구 부곡로 32-12 (부곡동, 대동다숲아파트)(788 (대동다숲아파트))",제한없음,35.21886438,129.0892214
차지비,부곡동대동다숲아파트,3,AC완속,부산광역시,금정구,"부산광역시 금정구 부곡로 32-12 (부곡동, 대동다숲아파트)(788 (대동다숲아파트))",제한없음,35.21886438,129.0892214
차지비,부곡동대동다숲아파트,4,AC완속,부산광역시,금정구,"부산광역시 금정구 부곡로 32-12 (부곡동, 대동다숲아파트)(788 (대동다숲아파트))",제한없음,35.21886438,129.0892214
차지비,부곡동대동다숲아파트,5,AC완속,부산광역시,금정구,"부산광역시 금정구 부곡로 32-12 (부곡동, 대동다숲아파트)(788 (대동다숲아파트))",제한없음,35.21886438,129.0892214
차지비,부산 세동한신아파트103동,1,AC완속,부산광역시,부산진구,"부산광역시 부산진구 새싹로 183 (연지동, 세동한신아파트) 101동~105동103동지하 가63기둥",제한없음,35.17178406,129.0489367
차지비,부산 세동한신아파트105동,1,AC완속,부산광역시,부산진구,"부산광역시 부산진구 새싹로 183 (연지동, 세동한신아파트) 101동~105동105동 다27기둥",제한없음,35.17178406,129.0489367
차지비,부산 센텀피오레백삼동,1,AC완속,부산광역시,해운대구,"부산광역시 해운대구 수영강변대로 382 (재송동, 센텀피오레1차아파트)103동 지하주차장",제한없음,35.19319472,129.1155554
차지비,부산 센텀피오레백삼동,2,AC완속,부산광역시,해운대구,"부산광역시 해운대구 수영강변대로 382 (재송동, 센텀피오레1차아파트)103동 지하주차장",제한없음,35.19319472,129.1155554
차지비,부산 센텀피오레백삼동,3,AC완속,부산광역시,해운대구,"부산광역시 해운대구 수영강변대로 382 (재송동, 센텀피오레1차아파트)103동 지하주차장",제한없음,35.19319472,129.1155554
차지비,부산 한국지엠엄궁바로서비스,1,AC완속,부산광역시,사상구,부산광역시 사상구 엄궁로 11 (엄궁동)옥외주차장,제한없음,35.12463812,128.9674605
차지비,부산 화명코오롱하늘채이백사동,1,AC완속,부산광역시,북구,"부산광역시 북구 화명신도시로 100 (화명동, 코오롱하늘채2차아파트) 부상가동204동 지하1층",제한없음,35.23156597,129.0123187
차지비,부산 화명코오롱하늘채이백사동,2,AC완속,부산광역시,북구,"부산광역시 북구 화명신도시로 100 (화명동, 코오롱하늘채2차아파트) 부상가동204동 지하1층",제한없음,35.23156597,129.0123187
차지비,부산 화명코오롱하늘채이백십동,1,AC완속,부산광역시,북구,"부산광역시 북구 화명신도시로 100 (화명동, 코오롱하늘채2차아파트) 부상가동210동 지하1층주차장",제한없음,35.23156597,129.0123187
차지비,부산 화명코오롱하늘채이백십동,2,AC완속,부산광역시,북구,"부산광역시 북구 화명신도시로 100 (화명동, 코오롱하늘채2차아파트) 부상가동210동 지하1층주차장",제한없음,35.23156597,129.0123187
차지비,부산 화명코오롱하늘채이백십일,1,AC완속,부산광역시,북구,"부산광역시 북구 화명신도시로 100 (화명동, 코오롱하늘채2차아파트) 부상가동211동 지하1층",제한없음,35.23156597,129.0123187
차지비,부산 화명코오롱하늘채이백십일,2,AC완속,부산광역시,북구,"부산광역시 북구 화명신도시로 100 (화명동, 코오롱하늘채2차아파트) 부상가동211동 지하1층",제한없음,35.23156597,129.0123187
차지비,부산 화명코오롱하늘채이백이동,1,AC완속,부산광역시,북구,"부산광역시 북구 화명신도시로 100 (화명동, 코오롱하늘채2차아파트) 201동~211동,상가202동 지하주차장",제한없음,35.23156597,129.0123187
차지비,부산 화명코오롱하늘채이백이동,2,AC완속,부산광역시,북구,"부산광역시 북구 화명신도시로 100 (화명동, 코오롱하늘채2차아파트) 201동~211동,상가202동 지하주차장",제한없음,35.23156597,129.0123187
차지비,부산 화명코오롱하늘채이백팔동,1,AC완속,부산광역시,북구,"부산광역시 북구 화명신도시로 100 (화명동, 코오롱하늘채2차아파트) 부상가동208동 지하1층",제한없음,35.23156597,129.0123187
차지비,부산 화명코오롱하늘채이백팔동,2,AC완속,부산광역시,북구,"부산광역시 북구 화명신도시로 100 (화명동, 코오롱하늘채2차아파트) 부상가동208동 지하1층",제한없음,35.23156597,129.0123187
차지비,부산광역시 금정구 삼성디지털프라자금정점,1,AC완속,부산광역시,금정구,부산광역시 금정구 중앙대로 1715,제한없음,35.23753213,129.0919052
차지비,부산광역시 부산신세계아울렛,1,AC완속,부산광역시,기장군,부산광역시 기장군 장안읍 정관로 1133 정문진입로 A주차타워 1층 ,제한없음,35.32381098,129.2349662
차지비,부산광역시 부산신세계아울렛,2,AC완속,부산광역시,기장군,부산광역시 기장군 장안읍 정관로 1133 정문진입로 A주차타워 1층 ,제한없음,35.32381098,129.2349662
차지비,부산광역시 블루핸즈(구포점),1,AC완속,부산광역시,북구,부산광역시 북구 백양대로1064번길 4 주차장,제한없음,35.19975011,128.9976188
차지비,부산광역시 이마트(금정점),1,AC완속,부산광역시,금정구,부산광역시 금정구 중앙대로1841번길 24 본관3층 F68구역,제한없음,35.24993665,129.0905919
차지비,부산광역시 이마트(문현점),1,AC완속,부산광역시,남구,부산광역시 남구 전포대로91번길 47 본관4층 E구역,제한없음,35.1443054,129.0642386
차지비,부산광역시 이마트(해운대점),1,AC완속,부산광역시,해운대구,부산광역시 해운대구 좌동순환로 511 본관4층 F구역,제한없음,35.16602082,129.1673738
차지비,부산광역시 이마트(해운대점),2,AC완속,부산광역시,해운대구,부산광역시 해운대구 좌동순환로 511 본관4층 F구역,제한없음,35.16602082,129.1673738
차지비,부산광역시 이마트TR(서면점),1,AC완속,부산광역시,부산진구,부산광역시 부산진구 새싹로 81 본관4층 E구역,제한없음,35.16390047,129.0525465
차지비,부산광역시 이마트TR(서면점),2,AC완속,부산광역시,부산진구,부산광역시 부산진구 새싹로 81 본관4층 E구역,제한없음,35.16390047,129.0525465
차지비,부산대학병원,1,AC완속,부산광역시,서구,"부산광역시 서구 구덕로 179 (아미동1가, 부산대학병원)(10-1 (부산대학병원))",제한없음,35.10105499,129.0192223
차지비,부산대학병원,2,AC완속,부산광역시,서구,"부산광역시 서구 구덕로 179 (아미동1가, 부산대학병원)(10-1 (부산대학병원))",제한없음,35.10105499,129.0192223
차지비,부산대학병원,3,AC완속,부산광역시,서구,"부산광역시 서구 구덕로 179 (아미동1가, 부산대학병원)(10-1 (부산대학병원))",제한없음,35.10105499,129.0192223
차지비,부산대학병원,4,AC완속,부산광역시,서구,"부산광역시 서구 구덕로 179 (아미동1가, 부산대학병원)(10-1 (부산대학병원))",제한없음,35.10105499,129.0192223
차지비,부산동래 SK VIEW(에스케이뷰아파트),1,AC완속,부산광역시,동래구,"부산광역시 동래구 중앙대로1381번길 52 (온천동, 동래SKVIEW아파트)(758-12 (동래SKVIEW아파트))",제한없음,35.21159212,129.0756826
차지비,부산동래 SK VIEW(에스케이뷰아파트),2,AC완속,부산광역시,동래구,"부산광역시 동래구 중앙대로1381번길 52 (온천동, 동래SKVIEW아파트)(758-12 (동래SKVIEW아파트))",제한없음,35.21159212,129.0756826
차지비,부산동래 SK VIEW(에스케이뷰아파트),3,AC완속,부산광역시,동래구,"부산광역시 동래구 중앙대로1381번길 52 (온천동, 동래SKVIEW아파트)(758-12 (동래SKVIEW아파트))",제한없음,35.21159212,129.0756826
차지비,부산동래 SK VIEW(에스케이뷰아파트),4,AC완속,부산광역시,동래구,"부산광역시 동래구 중앙대로1381번길 52 (온천동, 동래SKVIEW아파트)(758-12 (동래SKVIEW아파트))",제한없음,35.21159212,129.0756826
차지비,부산사상경찰서,1,AC완속,부산광역시,사상구,부산광역시 사상구 학감대로 264 (감전동     부산사상경찰서),제한없음,35.15434599,128.9913937
차지비,부산시 강서구 대명프라자,1,AC완속,부산광역시,강서구,부산광역시 강서구 명지국제8로10번길 12B1(명지동 3589-8 B1),제한없음,35.09216422,128.9021637
차지비,부산시 강서구 대명프라자,2,AC완속,부산광역시,강서구,부산광역시 강서구 명지국제8로10번길 12B1(명지동 3589-8 B1),제한없음,35.09216422,128.9021637
차지비,부산시 강서구 부산연구개발특구본부,1,AC완속,부산광역시,강서구,부산광역시 강서구 미음산단5로41번길 71주차장,제한없음,35.16176498,128.8676011
차지비,부산시 강서구 부산연구개발특구본부,2,AC완속,부산광역시,강서구,부산광역시 강서구 미음산단5로41번길 71주차장,제한없음,35.16176498,128.8676011
차지비,부산시 강서구 부산연구개발특구본부,3,AC완속,부산광역시,강서구,부산광역시 강서구 미음산단5로41번길 71주차장,제한없음,35.16176498,128.8676011
차지비,부산시 고신대학교,1,AC완속,부산광역시,영도구,부산광역시 영도구 와치로 194 주차장,제한없음,35.07946942,129.0621819
차지비,부산시 기장군 늘봄모텔,1,AC완속,부산광역시,기장군,부산광역시 기장군 일광면 삼성3길 53-3,제한없음,35.26581128,129.2339975
차지비,부산시 기장군 늘봄모텔,2,AC완속,부산광역시,기장군,부산광역시 기장군 일광면 삼성3길 53-3,제한없음,35.26581128,129.2339975
차지비,부산시 남구 중앙레포츠,1,AC완속,부산광역시,남구,부산광역시 남구 용호로 64주차장 오른쪽 끝,제한없음,35.12560981,129.1106327
차지비,부산시 남구 중앙레포츠,2,AC완속,부산광역시,남구,부산광역시 남구 용호로 64주차장 오른쪽 끝,제한없음,35.12560981,129.1106327
차지비,부산시 동래구 국제파크아파트,1,AC완속,부산광역시,동래구,부산광역시 동래구 충렬사로 81B2(26-24 국제파크아파트 B2),제한없음,35.20579785,129.1002258
차지비,부산시 동래구 국제파크아파트,2,AC완속,부산광역시,동래구,부산광역시 동래구 충렬사로 81B2(26-24 국제파크아파트 B2),제한없음,35.20579785,129.1002258
차지비,부산시 동래구 국제파크아파트,3,AC완속,부산광역시,동래구,부산광역시 동래구 충렬사로 81B2(26-24 국제파크아파트 B2),제한없음,35.20579785,129.1002258
차지비,부산시 동래구 국제파크아파트,4,AC완속,부산광역시,동래구,부산광역시 동래구 충렬사로 81B2(26-24 국제파크아파트 B2),제한없음,35.20579785,129.1002258
차지비,부산시 동래구 안락역,1,AC완속,부산광역시,동래구,부산광역시 동래구 복천동 381,제한없음,35.20506223,129.0836725
차지비,부산시 부경대학교,1,AC완속,부산광역시,남구,부산광역시 남구 신선로 365 주차장,제한없음,35.11599049,129.0894348
차지비,부산시 부경대학교,2,AC완속,부산광역시,남구,부산광역시 남구 신선로 365 주차장,제한없음,35.11599049,129.0894348
차지비,부산시 부경대학교,3,AC완속,부산광역시,남구,부산광역시 남구 신선로 365 주차장,제한없음,35.11599049,129.0894348
차지비,부산시 부산교육대학교,1,AC완속,부산광역시,연제구,부산광역시 연제구 교대로 24 주차장,제한없음,35.19569321,129.0770825
차지비,부산시 부산교육대학교,2,AC완속,부산광역시,연제구,부산광역시 연제구 교대로 24 주차장,제한없음,35.19569321,129.0770825
차지비,부산시 부산교육대학교,3,AC완속,부산광역시,연제구,부산광역시 연제구 교대로 24 주차장,제한없음,35.19569321,129.0770825
차지비,부산시 부산교육대학교,4,AC완속,부산광역시,연제구,부산광역시 연제구 교대로 24 주차장,제한없음,35.19569321,129.0770825
차지비,부산시 부산진구 대림아파트,1,AC완속,부산광역시,부산진구,"부산광역시 부산진구 성지곡로16번길 111동 지하1층 A3기둥, 2동 지하1층 C2기둥(349 대림아파트)",제한없음,35.18445459,129.0482644
차지비,부산시 부산진구 대림아파트,2,AC완속,부산광역시,부산진구,"부산광역시 부산진구 성지곡로16번길 111동 지하1층 A3기둥, 2동 지하1층 C2기둥(349 대림아파트)",제한없음,35.18445459,129.0482644
차지비,부산시 부산진구 대림아파트,3,AC완속,부산광역시,부산진구,"부산광역시 부산진구 성지곡로16번길 111동 지하1층 A3기둥, 2동 지하1층 C2기둥(349 대림아파트)",제한없음,35.18445459,129.0482644
차지비,부산시 부산진구 온모텔,1,AC완속,부산광역시,부산진구,부산광역시 부산진구 성지로153번길 16주차장,제한없음,35.18113966,129.0477538
차지비,부산시 부산진구 온모텔,2,AC완속,부산광역시,부산진구,부산광역시 부산진구 성지로153번길 16주차장,제한없음,35.18113966,129.0477538
차지비,부산시 북구 벽산강변타운,1,AC완속,부산광역시,북구,부산광역시 북구 양달로9번길 21104동 B1(188 벽산강변타운 104동 B1),제한없음,35.24539008,129.0135241
차지비,부산시 북구 벽산강변타운,2,AC완속,부산광역시,북구,부산광역시 북구 양달로9번길 21104동 B1(188 벽산강변타운 104동 B1),제한없음,35.24539008,129.0135241
차지비,부산시 북구 벽산강변타운,3,AC완속,부산광역시,북구,부산광역시 북구 양달로9번길 21104동 B1(188 벽산강변타운 104동 B1),제한없음,35.24539008,129.0135241
차지비,부산시 북구 아남프라자아파트,1,AC완속,부산광역시,북구,부산광역시 북구 금곡대로8번길 33B3(397-1 아남프라자 B3),제한없음,35.21150617,129.0072234
차지비,부산시 북구 아남프라자아파트,2,AC완속,부산광역시,북구,부산광역시 북구 금곡대로8번길 33B3(397-1 아남프라자 B3),제한없음,35.21150617,129.0072234
차지비,부산시 북구 코오롱하늘채2차,1,AC완속,부산광역시,북구,부산광역시 북구 화명신도시로 100203동 지하1층(2288 코오롱하늘채2차아파트 203동 지하1층),제한없음,35.2315576,129.0123123
차지비,부산시 북구 코오롱하늘채2차,2,AC완속,부산광역시,북구,부산광역시 북구 화명신도시로 100203동 지하1층(2288 코오롱하늘채2차아파트 203동 지하1층),제한없음,35.2315576,129.0123123
차지비,부산시 연제구 거제역,1,AC완속,부산광역시,연제구,부산광역시 연제구 거제1동 419-2번지 거제역 3층 중앙,제한없음,35.18959089,129.0743164
차지비,부산시 연제구 거제해맞이역,1,AC완속,부산광역시,연제구,부산광역시 연제구 거제동 619-1,제한없음,35.18231113,129.0693372
차지비,부산시 연제구 교대역,1,AC완속,부산광역시,연제구,부산광역시 연제구 거제동 48-5,제한없음,35.19366635,129.0792235
차지비,부산시 영도구 해양환경교육원 ,1,AC완속,부산광역시,영도구,부산광역시 영도구 해양로 301번길 23주차장,제한없음,35.08026664,129.077927
차지비,부산시 진구 CJ헬로중부산방송,1,AC완속,부산광역시,부산진구,부산광역시 부산진구 서전로46번길 48지하2층 전기실앞주차장,제한없음,35.15558207,129.0646308
차지비,부산시 한국수산자원관리공단,1,AC완속,부산광역시,기장군,부산광역시 기장군 일광면 이동길 4지하3층 주차장(입주민 전용),제한없음,35.26986583,129.242965
차지비,부산시 해운대구 센텀강변현대아파트,1,AC완속,부산광역시,해운대구,"부산광역시 해운대구 삼어로 131지하1층 LB1-6 판넬옆2기, 관리동B1,상가동B2",제한없음,35.20788975,129.1194412
차지비,부산시 해운대구 센텀강변현대아파트,2,AC완속,부산광역시,해운대구,"부산광역시 해운대구 삼어로 131지하1층 LB1-6 판넬옆2기, 관리동B1,상가동B2",제한없음,35.20788975,129.1194412
차지비,부산시 해운대구 센텀강변현대아파트,3,AC완속,부산광역시,해운대구,"부산광역시 해운대구 삼어로 131지하1층 LB1-6 판넬옆2기, 관리동B1,상가동B2",제한없음,35.20788975,129.1194412
차지비,부산시 해운대구 센텀강변현대아파트,4,AC완속,부산광역시,해운대구,"부산광역시 해운대구 삼어로 131지하1층 LB1-6 판넬옆2기, 관리동B1,상가동B2",제한없음,35.20788975,129.1194412
차지비,부산시 해운대구 센텀강변현대아파트,5,AC완속,부산광역시,해운대구,"부산광역시 해운대구 삼어로 131지하1층 LB1-6 판넬옆2기, 관리동B1,상가동B2",제한없음,35.20788975,129.1194412
차지비,부산시 해운대구 해운대현대하이페리온,1,AC완속,부산광역시,해운대구,"부산광역시 해운대구 마린시티1로 155지하3층, 지하4층 주차장(1434-2 해운대현대하이페리온 지하3층, 지하4층 주차장)",제한없음,35.15722902,129.148226
차지비,부산시 해운대구 해운대현대하이페리온,2,AC완속,부산광역시,해운대구,"부산광역시 해운대구 마린시티1로 155지하3층, 지하4층 주차장(1434-2 해운대현대하이페리온 지하3층, 지하4층 주차장)",제한없음,35.15722902,129.148226
차지비,부산시 해운대구 해운대현대하이페리온,3,AC완속,부산광역시,해운대구,"부산광역시 해운대구 마린시티1로 155지하3층, 지하4층 주차장(1434-2 해운대현대하이페리온 지하3층, 지하4층 주차장)",제한없음,35.15722902,129.148226
차지비,부산시 해운대구 해운대현대하이페리온,4,AC완속,부산광역시,해운대구,"부산광역시 해운대구 마린시티1로 155지하3층, 지하4층 주차장(1434-2 해운대현대하이페리온 지하3층, 지하4층 주차장)",제한없음,35.15722902,129.148226
차지비,부산시 해운대구 해운대현대하이페리온,5,AC완속,부산광역시,해운대구,"부산광역시 해운대구 마린시티1로 155지하3층, 지하4층 주차장(1434-2 해운대현대하이페리온 지하3층, 지하4층 주차장)",제한없음,35.15722902,129.148226
차지비,부산시 해운대구 해운대현대하이페리온,6,AC완속,부산광역시,해운대구,"부산광역시 해운대구 마린시티1로 155지하3층, 지하4층 주차장(1434-2 해운대현대하이페리온 지하3층, 지하4층 주차장)",제한없음,35.15722902,129.148226
차지비,부산시 해운대구 해운대현대하이페리온,7,AC완속,부산광역시,해운대구,"부산광역시 해운대구 마린시티1로 155지하3층, 지하4층 주차장(1434-2 해운대현대하이페리온 지하3층, 지하4층 주차장)",제한없음,35.15722902,129.148226
차지비,부산시 해운대구 해운대현대하이페리온,8,AC완속,부산광역시,해운대구,"부산광역시 해운대구 마린시티1로 155지하3층, 지하4층 주차장(1434-2 해운대현대하이페리온 지하3층, 지하4층 주차장)",제한없음,35.15722902,129.148226
차지비,부산시 해운대구 해운대현대하이페리온,9,AC완속,부산광역시,해운대구,"부산광역시 해운대구 마린시티1로 155지하3층, 지하4층 주차장(1434-2 해운대현대하이페리온 지하3층, 지하4층 주차장)",제한없음,35.15722902,129.148226
차지비,부산시 해운대구 해운대현대하이페리온,10,AC완속,부산광역시,해운대구,"부산광역시 해운대구 마린시티1로 155지하3층, 지하4층 주차장(1434-2 해운대현대하이페리온 지하3층, 지하4층 주차장)",제한없음,35.15722902,129.148226
차지비,부산시 해운대구 해운대현대하이페리온,11,AC완속,부산광역시,해운대구,"부산광역시 해운대구 마린시티1로 155지하3층, 지하4층 주차장(1434-2 해운대현대하이페리온 지하3층, 지하4층 주차장)",제한없음,35.15722902,129.148226
차지비,부산시 해운대구 해운대현대하이페리온,12,AC완속,부산광역시,해운대구,"부산광역시 해운대구 마린시티1로 155지하3층, 지하4층 주차장(1434-2 해운대현대하이페리온 지하3층, 지하4층 주차장)",제한없음,35.15722902,129.148226
차지비,부산신호윌더하임아파트,1,AC완속,부산광역시,강서구,"부산광역시 강서구 신호산단3로 55(신호동, 부산신호윌더하임아파트) 부산신호윌더하임아파트 106동 지하1층 B07기둥",제한없음,35.08856023,128.8780161
차지비,부산신호윌더하임아파트,2,AC완속,부산광역시,강서구,"부산광역시 강서구 신호산단3로 55(신호동, 부산신호윌더하임아파트) 부산신호윌더하임아파트 106동 지하1층 B07기둥",제한없음,35.08856023,128.8780161
차지비,부산신호윌더하임아파트,3,AC완속,부산광역시,강서구,"부산광역시 강서구 신호산단3로 55(신호동, 부산신호윌더하임아파트) 부산신호윌더하임아파트 106동 지하1층 B07기둥",제한없음,35.08856023,128.8780161
차지비,부산신호윌더하임아파트,4,AC완속,부산광역시,강서구,"부산광역시 강서구 신호산단3로 55(신호동, 부산신호윌더하임아파트) 부산신호윌더하임아파트 106동 지하1층 B07기둥",제한없음,35.08856023,128.8780161
차지비,부산신호윌더하임아파트,5,AC완속,부산광역시,강서구,"부산광역시 강서구 신호산단3로 55(신호동, 부산신호윌더하임아파트) 부산신호윌더하임아파트 106동 지하1층 B07기둥",제한없음,35.08856023,128.8780161
차지비,부산신호윌더하임아파트,6,AC완속,부산광역시,강서구,"부산광역시 강서구 신호산단3로 55(신호동, 부산신호윌더하임아파트) 부산신호윌더하임아파트 106동 지하1층 B07기둥",제한없음,35.08856023,128.8780161
차지비,부산용호주공아파트,1,AC완속,부산광역시,남구,"부산광역시 남구 용호로269번길 29 (용호동, 용호주공아파트)(563-1 (용호주공아파트))",제한없음,35.10936497,129.1136639
차지비,부산용호주공아파트,2,AC완속,부산광역시,남구,"부산광역시 남구 용호로269번길 29 (용호동, 용호주공아파트)(563-1 (용호주공아파트))",제한없음,35.10936497,129.1136639
차지비,부산용호주공아파트,3,AC완속,부산광역시,남구,"부산광역시 남구 용호로269번길 29 (용호동, 용호주공아파트)(563-1 (용호주공아파트))",제한없음,35.10936497,129.1136639
차지비,부산자동차부품도소매업협동조합,1,AC완속,부산광역시,강서구,부산광역시 강서구 유통단지1로57번길 34 (대저2동),제한없음,35.16420349,128.9532314
차지비,부산자동차부품도소매업협동조합,2,AC완속,부산광역시,강서구,부산광역시 강서구 유통단지1로57번길 34 (대저2동),제한없음,35.16420349,128.9532314
차지비,부산자동차부품도소매업협동조합,3,AC완속,부산광역시,강서구,부산광역시 강서구 유통단지1로57번길 34 (대저2동),제한없음,35.16420349,128.9532314
차지비,부산자동차부품도소매업협동조합,4,AC완속,부산광역시,강서구,부산광역시 강서구 유통단지1로57번길 34 (대저2동),제한없음,35.16420349,128.9532314
차지비,부산자동차부품도소매업협동조합,5,AC완속,부산광역시,강서구,부산광역시 강서구 유통단지1로57번길 34 (대저2동),제한없음,35.16420349,128.9532314
차지비,부산자동차부품유통단지,1,AC완속,부산광역시,강서구,"부산광역시 강서구 유통단지1로57번길 34104동옥상111~120호, 109동옥상101~109호",제한없음,35.16419162,128.9532126
차지비,부산자동차부품유통단지,2,AC완속,부산광역시,강서구,"부산광역시 강서구 유통단지1로57번길 34104동옥상111~120호, 109동옥상101~109호",제한없음,35.16419162,128.9532126
차지비,부산자동차부품유통단지,3,AC완속,부산광역시,강서구,"부산광역시 강서구 유통단지1로57번길 34104동옥상111~120호, 109동옥상101~109호",제한없음,35.16419162,128.9532126
차지비,부산자동차부품유통단지,4,AC완속,부산광역시,강서구,"부산광역시 강서구 유통단지1로57번길 34104동옥상111~120호, 109동옥상101~109호",제한없음,35.16419162,128.9532126
차지비,부암동협성아파트,1,AC완속,부산광역시,부산진구,"부산광역시 부산진구 당감로 118 (부암동, 협성아파트) 101동~103동,105동~108동",제한없음,35.17297567,129.0369457
차지비,부암동협성아파트,2,AC완속,부산광역시,부산진구,"부산광역시 부산진구 당감로 118 (부암동, 협성아파트) 101동~103동,105동~108동",제한없음,35.17297567,129.0369457
차지비,부암동협성아파트,3,AC완속,부산광역시,부산진구,"부산광역시 부산진구 당감로 118 (부암동, 협성아파트) 101동~103동,105동~108동",제한없음,35.17297567,129.0369457
차지비,부암동협성아파트,4,AC완속,부산광역시,부산진구,"부산광역시 부산진구 당감로 118 (부암동, 협성아파트) 101동~103동,105동~108동",제한없음,35.17297567,129.0369457
차지비,부암동협성아파트,5,AC완속,부산광역시,부산진구,"부산광역시 부산진구 당감로 118 (부암동, 협성아파트) 101동~103동,105동~108동",제한없음,35.17297567,129.0369457
차지비,브라운스톤연제1단지,1,AC완속,부산광역시,연제구,부산광역시 연제구 연제로8번길 29102동 지하2층 차량진출구옆,제한없음,35.17812387,129.0777268
차지비,브라운스톤연제1단지,2,AC완속,부산광역시,연제구,부산광역시 연제구 연제로8번길 29102동 지하2층 차량진출구옆,제한없음,35.17812387,129.0777268
차지비,브라운스톤연제1단지,3,AC완속,부산광역시,연제구,부산광역시 연제구 연제로8번길 29102동 지하2층 차량진출구옆,제한없음,35.17812387,129.0777268
차지비,브라운스톤연제1단지,4,AC완속,부산광역시,연제구,부산광역시 연제구 연제로8번길 29102동 지하2층 차량진출구옆,제한없음,35.17812387,129.0777268
차지비,브라운스톤연제2단지,1,AC완속,부산광역시,연제구,부산광역시 연제구 연제로8번길 30203동 지하2층 3~4라인차량진출구옆,제한없음,35.17706679,129.0794604
차지비,브라운스톤연제2단지,2,AC완속,부산광역시,연제구,부산광역시 연제구 연제로8번길 30203동 지하2층 3~4라인차량진출구옆,제한없음,35.17706679,129.0794604
차지비,브라운스톤연제2단지,3,AC완속,부산광역시,연제구,부산광역시 연제구 연제로8번길 30203동 지하2층 3~4라인차량진출구옆,제한없음,35.17706679,129.0794604
차지비,사상강변동원아파트,1,AC완속,부산광역시,사상구,"부산광역시 사상구 낙동대로1210번길 34 (괘법동, 사상강변동원아파트) 101동~106동104동 지하1층 2층",제한없음,35.16668227,128.9781039
차지비,사상강변동원아파트,2,AC완속,부산광역시,사상구,"부산광역시 사상구 낙동대로1210번길 34 (괘법동, 사상강변동원아파트) 101동~106동104동 지하1층 2층",제한없음,35.16668227,128.9781039
차지비,사상강변동원아파트,3,AC완속,부산광역시,사상구,"부산광역시 사상구 낙동대로1210번길 34 (괘법동, 사상강변동원아파트) 101동~106동104동 지하1층 2층",제한없음,35.16668227,128.9781039
차지비,사상강변동원아파트,4,AC완속,부산광역시,사상구,"부산광역시 사상구 낙동대로1210번길 34 (괘법동, 사상강변동원아파트) 101동~106동104동 지하1층 2층",제한없음,35.16668227,128.9781039
차지비,사직KCC스위첸,1,AC완속,부산광역시,동래구,"부산광역시 동래구 사직북로 64 (사직동, 사직KCC스위첸)사직KCC스위첸",제한없음,35.20088184,129.0570747
차지비,사직KCC스위첸,2,AC완속,부산광역시,동래구,"부산광역시 동래구 사직북로 64 (사직동, 사직KCC스위첸)사직KCC스위첸",제한없음,35.20088184,129.0570747
차지비,사직KCC스위첸,3,AC완속,부산광역시,동래구,"부산광역시 동래구 사직북로 64 (사직동, 사직KCC스위첸)사직KCC스위첸",제한없음,35.20088184,129.0570747
차지비,사직KCC스위첸,4,AC완속,부산광역시,동래구,"부산광역시 동래구 사직북로 64 (사직동, 사직KCC스위첸)사직KCC스위첸",제한없음,35.20088184,129.0570747
차지비,사직KCC스위첸,5,AC완속,부산광역시,동래구,"부산광역시 동래구 사직북로 64 (사직동, 사직KCC스위첸)사직KCC스위첸",제한없음,35.20088184,129.0570747
차지비,삼익퓨처타운,1,AC완속,부산광역시,연제구,"부산광역시 연제구 명륜로2번길 7 (거제동, 삼익퓨쳐타워아파트) 101동~102동",제한없음,35.1951738,129.0809539
차지비,삼익퓨처타운,2,AC완속,부산광역시,연제구,"부산광역시 연제구 명륜로2번길 7 (거제동, 삼익퓨쳐타워아파트) 101동~102동",제한없음,35.1951738,129.0809539
차지비,삼익퓨처타운,3,AC완속,부산광역시,연제구,"부산광역시 연제구 명륜로2번길 7 (거제동, 삼익퓨쳐타워아파트) 101동~102동",제한없음,35.1951738,129.0809539
차지비,삼한힐파크,1,AC완속,부산광역시,북구,"부산광역시 북구 화명대로 121 (화명동, 삼한힐파크)",제한없음,35.23589764,129.0205504
차지비,삼한힐파크,2,AC완속,부산광역시,북구,"부산광역시 북구 화명대로 121 (화명동, 삼한힐파크)",제한없음,35.23589764,129.0205504
차지비,삼한힐파크,3,AC완속,부산광역시,북구,"부산광역시 북구 화명대로 121 (화명동, 삼한힐파크)",제한없음,35.23589764,129.0205504
차지비,삼한힐파크,4,AC완속,부산광역시,북구,"부산광역시 북구 화명대로 121 (화명동, 삼한힐파크)",제한없음,35.23589764,129.0205504
차지비,삼한힐파크,5,AC완속,부산광역시,북구,"부산광역시 북구 화명대로 121 (화명동, 삼한힐파크)",제한없음,35.23589764,129.0205504
차지비,서면유림노르웨이숲아파트,1,AC완속,부산광역시,부산진구,"부산광역시 부산진구 신천대로 71 (범천동, 서면유림노르웨이숲아파트)(865 (서면유림노르웨이숲아파트))",제한없음,35.14997982,129.057646
차지비,서면유림노르웨이숲아파트,2,AC완속,부산광역시,부산진구,"부산광역시 부산진구 신천대로 71 (범천동, 서면유림노르웨이숲아파트)(865 (서면유림노르웨이숲아파트))",제한없음,35.14997982,129.057646
차지비,서면유림노르웨이숲아파트,3,AC완속,부산광역시,부산진구,"부산광역시 부산진구 신천대로 71 (범천동, 서면유림노르웨이숲아파트)(865 (서면유림노르웨이숲아파트))",제한없음,35.14997982,129.057646
차지비,서면유림노르웨이숲아파트,4,AC완속,부산광역시,부산진구,"부산광역시 부산진구 신천대로 71 (범천동, 서면유림노르웨이숲아파트)(865 (서면유림노르웨이숲아파트))",제한없음,35.14997982,129.057646
차지비,서부이진테마빌,1,AC완속,부산광역시,기장군,"부산광역시 기장군 기장읍 배산로8번길 65 (서부리, 이진테마빌) 102동(404 (이진테마빌))",제한없음,35.25021011,129.2103698
차지비,서부이진테마빌,2,AC완속,부산광역시,기장군,"부산광역시 기장군 기장읍 배산로8번길 65 (서부리, 이진테마빌) 102동(404 (이진테마빌))",제한없음,35.25021011,129.2103698
차지비,서부이진테마빌,3,AC완속,부산광역시,기장군,"부산광역시 기장군 기장읍 배산로8번길 65 (서부리, 이진테마빌) 102동(404 (이진테마빌))",제한없음,35.25021011,129.2103698
차지비,서부이진테마빌,4,AC완속,부산광역시,기장군,"부산광역시 기장군 기장읍 배산로8번길 65 (서부리, 이진테마빌) 102동(404 (이진테마빌))",제한없음,35.25021011,129.2103698
차지비,센텀경동리인,1,AC완속,부산광역시,해운대구,부산광역시 해운대구 해운대로469번길 178102동지하4층 09기둥 3기,제한없음,35.16924309,129.1420042
차지비,센텀경동리인,2,AC완속,부산광역시,해운대구,부산광역시 해운대구 해운대로469번길 178102동지하4층 09기둥 3기,제한없음,35.16924309,129.1420042
차지비,센텀경동리인,3,AC완속,부산광역시,해운대구,부산광역시 해운대구 해운대로469번길 178102동지하4층 09기둥 3기,제한없음,35.16924309,129.1420042
차지비,센텀동부센트레빌,1,AC완속,부산광역시,해운대구,"부산광역시 해운대구 해운대로161번길 12 (재송동, 센텀동부센트레빌아파트)102동 지하4층 25기둥",제한없음,35.18376594,129.1243697
차지비,센텀동부센트레빌,2,AC완속,부산광역시,해운대구,"부산광역시 해운대구 해운대로161번길 12 (재송동, 센텀동부센트레빌아파트)102동 지하4층 25기둥",제한없음,35.18376594,129.1243697
차지비,센텀동부센트레빌,3,AC완속,부산광역시,해운대구,"부산광역시 해운대구 해운대로161번길 12 (재송동, 센텀동부센트레빌아파트)102동 지하4층 25기둥",제한없음,35.18376594,129.1243697
차지비,센텀동부센트레빌,4,AC완속,부산광역시,해운대구,"부산광역시 해운대구 해운대로161번길 12 (재송동, 센텀동부센트레빌아파트)102동 지하4층 25기둥",제한없음,35.18376594,129.1243697
차지비,센텀동부센트레빌,5,AC완속,부산광역시,해운대구,"부산광역시 해운대구 해운대로161번길 12 (재송동, 센텀동부센트레빌아파트)102동 지하4층 25기둥",제한없음,35.18376594,129.1243697
차지비,송파지오스5차,1,AC완속,부산광역시,수영구,"부산광역시 수영구 수영로 665 (광안동, 송파지오스V)",제한없음,35.16513124,129.1143431
차지비,신화명리버뷰자이,1,AC완속,부산광역시,북구,부산광역시 북구 금곡대로470번길 29신화명리버뷰자이 지하1층 101동 4호라인 25번 기둥(금곡동 1918),제한없음,35.25134795,129.0121683
차지비,신화명리버뷰자이,2,AC완속,부산광역시,북구,부산광역시 북구 금곡대로470번길 29신화명리버뷰자이 지하1층 101동 4호라인 25번 기둥(금곡동 1918),제한없음,35.25134795,129.0121683
차지비,신화명리버뷰자이,3,AC완속,부산광역시,북구,부산광역시 북구 금곡대로470번길 29신화명리버뷰자이 지하1층 101동 4호라인 25번 기둥(금곡동 1918),제한없음,35.25134795,129.0121683
차지비,신화명리버뷰자이,4,AC완속,부산광역시,북구,부산광역시 북구 금곡대로470번길 29신화명리버뷰자이 지하1층 101동 4호라인 25번 기둥(금곡동 1918),제한없음,35.25134795,129.0121683
차지비,양정동현대아파트,1,AC완속,부산광역시,부산진구,"부산광역시 부산진구 동평로 352 (양정동, 현대아파트) 101동~113동(458-5 (현대아파트))",제한없음,35.17421197,129.0630378
차지비,양정동현대아파트,2,AC완속,부산광역시,부산진구,"부산광역시 부산진구 동평로 352 (양정동, 현대아파트) 101동~113동(458-5 (현대아파트))",제한없음,35.17421197,129.0630378
차지비,양정동현대아파트,3,AC완속,부산광역시,부산진구,"부산광역시 부산진구 동평로 352 (양정동, 현대아파트) 101동~113동(458-5 (현대아파트))",제한없음,35.17421197,129.0630378
차지비,양정동현대아파트,4,AC완속,부산광역시,부산진구,"부산광역시 부산진구 동평로 352 (양정동, 현대아파트) 101동~113동(458-5 (현대아파트))",제한없음,35.17421197,129.0630378
차지비,양정동현대아파트,5,AC완속,부산광역시,부산진구,"부산광역시 부산진구 동평로 352 (양정동, 현대아파트) 101동~113동(458-5 (현대아파트))",제한없음,35.17421197,129.0630378
차지비,양정현대2차아파트,1,AC완속,부산광역시,부산진구,"부산광역시 부산진구 거제대로 37 (양정동, 현대2차아파트) 201동~215동, 상가동",제한없음,35.17075529,129.0664574
차지비,양정현대2차아파트,2,AC완속,부산광역시,부산진구,"부산광역시 부산진구 거제대로 37 (양정동, 현대2차아파트) 201동~215동, 상가동",제한없음,35.17075529,129.0664574
차지비,양정현대2차아파트,3,AC완속,부산광역시,부산진구,"부산광역시 부산진구 거제대로 37 (양정동, 현대2차아파트) 201동~215동, 상가동",제한없음,35.17075529,129.0664574
차지비,양정현대2차아파트,4,AC완속,부산광역시,부산진구,"부산광역시 부산진구 거제대로 37 (양정동, 현대2차아파트) 201동~215동, 상가동",제한없음,35.17075529,129.0664574
차지비,양정현대2차아파트,5,AC완속,부산광역시,부산진구,"부산광역시 부산진구 거제대로 37 (양정동, 현대2차아파트) 201동~215동, 상가동",제한없음,35.17075529,129.0664574
차지비,엄궁 코오롱아파트,1,AC완속,부산광역시,사상구,"부산광역시 사상구 엄궁로 142 (엄궁동, 코오롱아파트) 101동~113동,분산상가동",제한없음,35.12607551,128.9782906
차지비,엄궁 코오롱아파트,2,AC완속,부산광역시,사상구,"부산광역시 사상구 엄궁로 142 (엄궁동, 코오롱아파트) 101동~113동,분산상가동",제한없음,35.12607551,128.9782906
차지비,엄궁 코오롱아파트,3,AC완속,부산광역시,사상구,"부산광역시 사상구 엄궁로 142 (엄궁동, 코오롱아파트) 101동~113동,분산상가동",제한없음,35.12607551,128.9782906
차지비,엄궁 코오롱아파트,4,AC완속,부산광역시,사상구,"부산광역시 사상구 엄궁로 142 (엄궁동, 코오롱아파트) 101동~113동,분산상가동",제한없음,35.12607551,128.9782906
차지비,엄궁 코오롱아파트,5,AC완속,부산광역시,사상구,"부산광역시 사상구 엄궁로 142 (엄궁동, 코오롱아파트) 101동~113동,분산상가동",제한없음,35.12607551,128.9782906
차지비,엄궁대림아파트,1,AC완속,부산광역시,사상구,부산광역시 사상구 엄궁로 154 (엄궁동     엄궁대림아파트) 상가동,제한없음,35.12893558,128.9781865
차지비,엄궁대림아파트,2,AC완속,부산광역시,사상구,부산광역시 사상구 엄궁로 154 (엄궁동     엄궁대림아파트) 상가동,제한없음,35.12893558,128.9781865
차지비,엄궁동쌍용스윗닷홈아파트,1,AC완속,부산광역시,사상구,부산광역시 사상구 엄궁로 100 (엄궁동     쌍용스윗닷홈아파트),제한없음,35.12503076,128.9766018
차지비,엄궁동쌍용스윗닷홈아파트,2,AC완속,부산광역시,사상구,부산광역시 사상구 엄궁로 100 (엄궁동     쌍용스윗닷홈아파트),제한없음,35.12503076,128.9766018
차지비,엄궁동쌍용스윗닷홈아파트,3,AC완속,부산광역시,사상구,부산광역시 사상구 엄궁로 100 (엄궁동     쌍용스윗닷홈아파트),제한없음,35.12503076,128.9766018
차지비,역사하베스티움,1,AC완속,부산광역시,사하구,"부산광역시 사하구 장림번영로 96103동지하2층1,2라인B2 21 기둥옆 2기",제한없음,35.08002115,128.9754358
차지비,역사하베스티움,2,AC완속,부산광역시,사하구,"부산광역시 사하구 장림번영로 96103동지하2층1,2라인B2 21 기둥옆 2기",제한없음,35.08002115,128.9754358
차지비,연산동일동미라주더스타,1,AC완속,부산광역시,연제구,"부산광역시 연제구 반송로 80 (연산동, 연산동일동미라주더스타)102동 지하2층 3층",제한없음,35.19061647,129.0879151
차지비,연산동일동미라주더스타,2,AC완속,부산광역시,연제구,"부산광역시 연제구 반송로 80 (연산동, 연산동일동미라주더스타)102동 지하2층 3층",제한없음,35.19061647,129.0879151
차지비,연산동일동미라주더스타,3,AC완속,부산광역시,연제구,"부산광역시 연제구 반송로 80 (연산동, 연산동일동미라주더스타)102동 지하2층 3층",제한없음,35.19061647,129.0879151
차지비,연산동일동미라주더스타,4,AC완속,부산광역시,연제구,"부산광역시 연제구 반송로 80 (연산동, 연산동일동미라주더스타)102동 지하2층 3층",제한없음,35.19061647,129.0879151
차지비,연지자이1차아파트,1,AC완속,부산광역시,부산진구,"부산광역시 부산진구 동평로183번길 67 (연지동, 연지자이아파트1차)",제한없음,35.1704728,129.0484292
차지비,연지자이1차아파트,2,AC완속,부산광역시,부산진구,"부산광역시 부산진구 동평로183번길 67 (연지동, 연지자이아파트1차)",제한없음,35.1704728,129.0484292
차지비,연지자이1차아파트,3,AC완속,부산광역시,부산진구,"부산광역시 부산진구 동평로183번길 67 (연지동, 연지자이아파트1차)",제한없음,35.1704728,129.0484292
차지비,연지자이1차아파트,4,AC완속,부산광역시,부산진구,"부산광역시 부산진구 동평로183번길 67 (연지동, 연지자이아파트1차)",제한없음,35.1704728,129.0484292
차지비,연지자이1차아파트,5,AC완속,부산광역시,부산진구,"부산광역시 부산진구 동평로183번길 67 (연지동, 연지자이아파트1차)",제한없음,35.1704728,129.0484292
차지비,용당한신문화타운,1,AC완속,부산광역시,남구,"부산광역시 남구 유엔평화로 152-2 (용당동,  용당한신문화타운)",제한없음,35.12269317,129.0972101
차지비,용호동경동아파트,1,AC완속,부산광역시,남구,"부산광역시 남구 동명로 202 (용호동, 경동아파트)(519-5 (경동아파트))",제한없음,35.11682523,129.1166049
차지비,용호동경동아파트,2,AC완속,부산광역시,남구,"부산광역시 남구 동명로 202 (용호동, 경동아파트)(519-5 (경동아파트))",제한없음,35.11682523,129.1166049
차지비,우방신세계아파트,1,AC완속,부산광역시,해운대구,"부산광역시 해운대구 삼어로 61 (반여동, 우방신세계아파트)",제한없음,35.20284944,129.1161518
차지비,우방신세계아파트,2,AC완속,부산광역시,해운대구,"부산광역시 해운대구 삼어로 61 (반여동, 우방신세계아파트)",제한없음,35.20284944,129.1161518
차지비,우방신세계아파트,3,AC완속,부산광역시,해운대구,"부산광역시 해운대구 삼어로 61 (반여동, 우방신세계아파트)",제한없음,35.20284944,129.1161518
차지비,우방신세계아파트,4,AC완속,부산광역시,해운대구,"부산광역시 해운대구 삼어로 61 (반여동, 우방신세계아파트)",제한없음,35.20284944,129.1161518
차지비,우방신세계아파트,5,AC완속,부산광역시,해운대구,"부산광역시 해운대구 삼어로 61 (반여동, 우방신세계아파트)",제한없음,35.20284944,129.1161518
차지비,우암일신보라아파트,1,AC완속,부산광역시,남구,"부산광역시 남구 유엔로 15 (우암동, 일신보라아파트)",제한없음,35.1260947,129.078925
차지비,우암일신보라아파트,2,AC완속,부산광역시,남구,"부산광역시 남구 유엔로 15 (우암동, 일신보라아파트)",제한없음,35.1260947,129.078925
차지비,우암일신보라아파트,3,AC완속,부산광역시,남구,"부산광역시 남구 유엔로 15 (우암동, 일신보라아파트)",제한없음,35.1260947,129.078925
차지비,이진캐스빌블루2차아파트,1,AC완속,부산광역시,기장군,부산광역시 기장군 기장읍 차성로 452 (교리     이진캐스빌블루2차아파트),제한없음,35.25536656,129.2191752
차지비,이진캐스빌블루2차아파트,2,AC완속,부산광역시,기장군,부산광역시 기장군 기장읍 차성로 452 (교리     이진캐스빌블루2차아파트),제한없음,35.25536656,129.2191752
차지비,장안산단효성전기,1,AC완속,부산광역시,기장군,"부산광역시 기장군 장안읍 장안산단9로 190 (반룡리, (주)효성전기)(839-3 ((주)효성전기))",제한없음,35.32475242,129.2565893
차지비,주례청구아파트,1,AC완속,부산광역시,사상구,"부산광역시 사상구 백양대로494번길 38 (주례동, 청구아파트)123동 지하주차장",제한없음,35.1552457,129.0011492
차지비,주례청구아파트,2,AC완속,부산광역시,사상구,"부산광역시 사상구 백양대로494번길 38 (주례동, 청구아파트)123동 지하주차장",제한없음,35.1552457,129.0011492
차지비,주례한일유엔아이아파트,1,AC완속,부산광역시,사상구,"부산광역시 사상구 백양대로 372-15 (주례동, 주례한일유앤아이아파트)101~102동 지하4층 18기둥",제한없음,35.15464473,129.0101481
차지비,주례한일유엔아이아파트,2,AC완속,부산광역시,사상구,"부산광역시 사상구 백양대로 372-15 (주례동, 주례한일유앤아이아파트)101~102동 지하4층 18기둥",제한없음,35.15464473,129.0101481
차지비,주례한일유엔아이아파트,3,AC완속,부산광역시,사상구,"부산광역시 사상구 백양대로 372-15 (주례동, 주례한일유앤아이아파트)101~102동 지하4층 18기둥",제한없음,35.15464473,129.0101481
차지비,주례한일유엔아이아파트,4,AC완속,부산광역시,사상구,"부산광역시 사상구 백양대로 372-15 (주례동, 주례한일유앤아이아파트)101~102동 지하4층 18기둥",제한없음,35.15464473,129.0101481
차지비,주례한일유엔아이아파트,5,AC완속,부산광역시,사상구,"부산광역시 사상구 백양대로 372-15 (주례동, 주례한일유앤아이아파트)101~102동 지하4층 18기둥",제한없음,35.15464473,129.0101481
차지비,중동롯데캐슬마린아파트,1,AC완속,부산광역시,해운대구,"부산광역시 해운대구 중동2로34번길 29 (중동, 롯데캐슬마린아파트)(1360 (롯데캐슬마린아파트))",제한없음,35.16593448,129.1650771
차지비,중동롯데캐슬마린아파트,2,AC완속,부산광역시,해운대구,"부산광역시 해운대구 중동2로34번길 29 (중동, 롯데캐슬마린아파트)(1360 (롯데캐슬마린아파트))",제한없음,35.16593448,129.1650771
차지비,중동롯데캐슬마린아파트,3,AC완속,부산광역시,해운대구,"부산광역시 해운대구 중동2로34번길 29 (중동, 롯데캐슬마린아파트)(1360 (롯데캐슬마린아파트))",제한없음,35.16593448,129.1650771
차지비,중동롯데캐슬마린아파트,4,AC완속,부산광역시,해운대구,"부산광역시 해운대구 중동2로34번길 29 (중동, 롯데캐슬마린아파트)(1360 (롯데캐슬마린아파트))",제한없음,35.16593448,129.1650771
차지비,중동롯데캐슬마린아파트,5,AC완속,부산광역시,해운대구,"부산광역시 해운대구 중동2로34번길 29 (중동, 롯데캐슬마린아파트)(1360 (롯데캐슬마린아파트))",제한없음,35.16593448,129.1650771
차지비,한국마사회 부산경남지역본부,1,AC완속,부산광역시,강서구,"부산광역시 강서구 가락대로 929 (범방동, 부산경남경마공원)",제한없음,35.15474347,128.8819761
차지비,한국마사회 부산경남지역본부,2,AC완속,부산광역시,강서구,"부산광역시 강서구 가락대로 929 (범방동, 부산경남경마공원)",제한없음,35.15474347,128.8819761
차지비,한국마사회 부산경남지역본부,3,AC완속,부산광역시,강서구,"부산광역시 강서구 가락대로 929 (범방동, 부산경남경마공원)",제한없음,35.15474347,128.8819761
차지비,한국마사회 부산경남지역본부,4,AC완속,부산광역시,강서구,"부산광역시 강서구 가락대로 929 (범방동, 부산경남경마공원)",제한없음,35.15474347,128.8819761
차지비,한국마사회 부산경남지역본부,5,AC완속,부산광역시,강서구,"부산광역시 강서구 가락대로 929 (범방동, 부산경남경마공원)",제한없음,35.15474347,128.8819761
차지비,해운대 대우2차아파트,1,AC완속,부산광역시,해운대구,"부산광역시 해운대구 좌동순환로 275 (좌동, 대우2차아파트)(1438 (대우2차아파트))",제한없음,35.17245308,129.1832275
차지비,해운대 대우2차아파트,2,AC완속,부산광역시,해운대구,"부산광역시 해운대구 좌동순환로 275 (좌동, 대우2차아파트)(1438 (대우2차아파트))",제한없음,35.17245308,129.1832275
차지비,해운대 대우2차아파트,3,AC완속,부산광역시,해운대구,"부산광역시 해운대구 좌동순환로 275 (좌동, 대우2차아파트)(1438 (대우2차아파트))",제한없음,35.17245308,129.1832275
차지비,해운대 대우2차아파트,4,AC완속,부산광역시,해운대구,"부산광역시 해운대구 좌동순환로 275 (좌동, 대우2차아파트)(1438 (대우2차아파트))",제한없음,35.17245308,129.1832275
차지비,해운대 대우2차아파트,5,AC완속,부산광역시,해운대구,"부산광역시 해운대구 좌동순환로 275 (좌동, 대우2차아파트)(1438 (대우2차아파트))",제한없음,35.17245308,129.1832275
차지비,해운대동부올림픽타운,1,AC완속,부산광역시,해운대구,부산광역시 해운대구 해운대로 428 (우동     동부올림픽타운),제한없음,35.16688367,129.1398406
차지비,해운대동부올림픽타운,2,AC완속,부산광역시,해운대구,부산광역시 해운대구 해운대로 428 (우동     동부올림픽타운),제한없음,35.16688367,129.1398406
차지비,해운대동부올림픽타운,3,AC완속,부산광역시,해운대구,부산광역시 해운대구 해운대로 428 (우동     동부올림픽타운),제한없음,35.16688367,129.1398406
차지비,해운대동부올림픽타운,4,AC완속,부산광역시,해운대구,부산광역시 해운대구 해운대로 428 (우동     동부올림픽타운),제한없음,35.16688367,129.1398406
차지비,해운대비치로데오아울렛,1,AC완속,부산광역시,해운대구,"부산광역시 해운대구 좌동순환로 473 (중동, 해운대로데오아울렛)D동 2주차장 지하1층",제한없음,35.16366622,129.1694173
차지비,해운대삼성아파트,1,AC완속,부산광역시,해운대구,"부산광역시 해운대구 세실로 174 (좌동, 삼성아파트)(1413 (삼성아파트))",제한없음,35.17907054,129.1773346
차지비,해운대삼성아파트,2,AC완속,부산광역시,해운대구,"부산광역시 해운대구 세실로 174 (좌동, 삼성아파트)(1413 (삼성아파트))",제한없음,35.17907054,129.1773346
차지비,해운대삼성아파트,3,AC완속,부산광역시,해운대구,"부산광역시 해운대구 세실로 174 (좌동, 삼성아파트)(1413 (삼성아파트))",제한없음,35.17907054,129.1773346
차지비,해운대삼성아파트,4,AC완속,부산광역시,해운대구,"부산광역시 해운대구 세실로 174 (좌동, 삼성아파트)(1413 (삼성아파트))",제한없음,35.17907054,129.1773346
차지비,해운대삼성아파트,5,AC완속,부산광역시,해운대구,"부산광역시 해운대구 세실로 174 (좌동, 삼성아파트)(1413 (삼성아파트))",제한없음,35.17907054,129.1773346
차지비,해운대삼정그린코아아파트,1,AC완속,부산광역시,해운대구,"부산광역시 해운대구 해운대로 777 (중동, 삼정그린코아아파트)(262-1 (삼정그린코아아파트))",제한없음,35.16836557,129.1741101
차지비,해운대삼정그린코아아파트,2,AC완속,부산광역시,해운대구,"부산광역시 해운대구 해운대로 777 (중동, 삼정그린코아아파트)(262-1 (삼정그린코아아파트))",제한없음,35.16836557,129.1741101
차지비,해운대영남아파트,1,AC완속,부산광역시,해운대구,"부산광역시 해운대구 좌동순환로311번길 8 (좌동, 해운대영남아파트)지하 1층 318",제한없음,35.16807996,129.1830873
차지비,해운대영남아파트,2,AC완속,부산광역시,해운대구,"부산광역시 해운대구 좌동순환로311번길 8 (좌동, 해운대영남아파트)지하 1층 318",제한없음,35.16807996,129.1830873
차지비,해운대영남아파트,3,AC완속,부산광역시,해운대구,"부산광역시 해운대구 좌동순환로311번길 8 (좌동, 해운대영남아파트)지하 1층 318",제한없음,35.16807996,129.1830873
차지비,해운대영남아파트,4,AC완속,부산광역시,해운대구,"부산광역시 해운대구 좌동순환로311번길 8 (좌동, 해운대영남아파트)지하 1층 318",제한없음,35.16807996,129.1830873
차지비,해운대영남아파트,5,AC완속,부산광역시,해운대구,"부산광역시 해운대구 좌동순환로311번길 8 (좌동, 해운대영남아파트)지하 1층 318",제한없음,35.16807996,129.1830873
차지비,해운대영남아파트,6,AC완속,부산광역시,해운대구,"부산광역시 해운대구 좌동순환로311번길 8 (좌동, 해운대영남아파트)지하 1층 318",제한없음,35.16807996,129.1830873
차지비,해운대컨트리클럽(해운대CC),1,AC완속,부산광역시,기장군,부산광역시 기장군 정관읍 병산2로 265 (병산리)(병산리 산6),제한없음,35.36370629,129.2041477
차지비,해운대컨트리클럽(해운대CC),2,AC완속,부산광역시,기장군,부산광역시 기장군 정관읍 병산2로 265 (병산리)(병산리 산6),제한없음,35.36370629,129.2041477
차지비,해운대컨트리클럽(해운대CC),3,AC완속,부산광역시,기장군,부산광역시 기장군 정관읍 병산2로 265 (병산리)(병산리 산6),제한없음,35.36370629,129.2041477
차지비,해운대컨트리클럽(해운대CC),4,AC완속,부산광역시,기장군,부산광역시 기장군 정관읍 병산2로 265 (병산리)(병산리 산6),제한없음,35.36370629,129.2041477
차지비,해운대한일아파트,1,AC완속,부산광역시,해운대구,"부산광역시 해운대구 대천로 56 (좌동, 한일아파트)",제한없음,35.17258062,129.1712839
차지비,해운대한일아파트,2,AC완속,부산광역시,해운대구,"부산광역시 해운대구 대천로 56 (좌동, 한일아파트)",제한없음,35.17258062,129.1712839
차지비,해운대한일아파트,3,AC완속,부산광역시,해운대구,"부산광역시 해운대구 대천로 56 (좌동, 한일아파트)",제한없음,35.17258062,129.1712839
차지비,해운대한일아파트,4,AC완속,부산광역시,해운대구,"부산광역시 해운대구 대천로 56 (좌동, 한일아파트)",제한없음,35.17258062,129.1712839
차지비,해운대현대아파트,1,AC완속,부산광역시,해운대구,"부산광역시 해운대구 양운로37번길 11 (좌동, 현대아파트)",제한없음,35.16553315,129.1780844
차지비,해운대현대아파트,2,AC완속,부산광역시,해운대구,"부산광역시 해운대구 양운로37번길 11 (좌동, 현대아파트)",제한없음,35.16553315,129.1780844
차지비,해운대현대아파트,3,AC완속,부산광역시,해운대구,"부산광역시 해운대구 양운로37번길 11 (좌동, 현대아파트)",제한없음,35.16553315,129.1780844
차지비,해운대현대아파트,4,AC완속,부산광역시,해운대구,"부산광역시 해운대구 양운로37번길 11 (좌동, 현대아파트)",제한없음,35.16553315,129.1780844
차지비,현대무지개타운,1,AC완속,부산광역시,사상구,부산광역시 사상구 주례로 93 (주례동     현대무지개타운),제한없음,35.14496383,129.0049861
차지비,현대무지개타운,2,AC완속,부산광역시,사상구,부산광역시 사상구 주례로 93 (주례동     현대무지개타운),제한없음,35.14496383,129.0049861
차지비,현대무지개타운,3,AC완속,부산광역시,사상구,부산광역시 사상구 주례로 93 (주례동     현대무지개타운),제한없음,35.14496383,129.0049861
차지비,현대무지개타운,4,AC완속,부산광역시,사상구,부산광역시 사상구 주례로 93 (주례동     현대무지개타운),제한없음,35.14496383,129.0049861
차지비,현대무지개타운,5,AC완속,부산광역시,사상구,부산광역시 사상구 주례로 93 (주례동     현대무지개타운),제한없음,35.14496383,129.0049861
차지비,현대베네시티,1,AC완속,부산광역시,해운대구,"부산광역시 해운대구 해운대해변로 163 (우동, 현대베네시티아파트)(1432 (현대베네시티아파트))",제한없음,35.15816911,129.1507284
차지비,현대베네시티,2,AC완속,부산광역시,해운대구,"부산광역시 해운대구 해운대해변로 163 (우동, 현대베네시티아파트)(1432 (현대베네시티아파트))",제한없음,35.15816911,129.1507284
차지비,현대베네시티,3,AC완속,부산광역시,해운대구,"부산광역시 해운대구 해운대해변로 163 (우동, 현대베네시티아파트)(1432 (현대베네시티아파트))",제한없음,35.15816911,129.1507284
차지비,현대베네시티,4,AC완속,부산광역시,해운대구,"부산광역시 해운대구 해운대해변로 163 (우동, 현대베네시티아파트)(1432 (현대베네시티아파트))",제한없음,35.15816911,129.1507284
차지비,현대베네시티,5,AC완속,부산광역시,해운대구,"부산광역시 해운대구 해운대해변로 163 (우동, 현대베네시티아파트)(1432 (현대베네시티아파트))",제한없음,35.15816911,129.1507284
차지비,화명2차현대아파트,1,AC완속,부산광역시,북구,"부산광역시 북구 화명신도시로 48 (화명동, 화명2차현대아파트) 201동~208동(2307 (화명2차현대아파트))",제한없음,35.2273097,129.010014
차지비,화명2차현대아파트,2,AC완속,부산광역시,북구,"부산광역시 북구 화명신도시로 48 (화명동, 화명2차현대아파트) 201동~208동(2307 (화명2차현대아파트))",제한없음,35.2273097,129.010014
차지비,화명2차현대아파트,3,AC완속,부산광역시,북구,"부산광역시 북구 화명신도시로 48 (화명동, 화명2차현대아파트) 201동~208동(2307 (화명2차현대아파트))",제한없음,35.2273097,129.010014
차지비,화명2차현대아파트,4,AC완속,부산광역시,북구,"부산광역시 북구 화명신도시로 48 (화명동, 화명2차현대아파트) 201동~208동(2307 (화명2차현대아파트))",제한없음,35.2273097,129.010014
차지비,화명동대림타운,1,AC완속,부산광역시,북구,"부산광역시 북구 금곡대로 268 (화명동, 화명동대림타운) 301동~308동,401동~410동(1170-1 (화명동대림타운))",제한없음,35.23140802,129.0151331
차지비,화명동대림타운,2,AC완속,부산광역시,북구,"부산광역시 북구 금곡대로 268 (화명동, 화명동대림타운) 301동~308동,401동~410동(1170-1 (화명동대림타운))",제한없음,35.23140802,129.0151331
차지비,화명동대림타운,3,AC완속,부산광역시,북구,"부산광역시 북구 금곡대로 268 (화명동, 화명동대림타운) 301동~308동,401동~410동(1170-1 (화명동대림타운))",제한없음,35.23140802,129.0151331
차지비,화명동대림타운,4,AC완속,부산광역시,북구,"부산광역시 북구 금곡대로 268 (화명동, 화명동대림타운) 301동~308동,401동~410동(1170-1 (화명동대림타운))",제한없음,35.23140802,129.0151331
차지비,화명동롯데낙천대아파트,1,AC완속,부산광역시,북구,부산광역시 북구 화명신도시로 156 (화명동     롯데아파트낙천대) 101동~115동 상가동,제한없음,35.23745769,129.0118679
차지비,화명동롯데낙천대아파트,2,AC완속,부산광역시,북구,부산광역시 북구 화명신도시로 156 (화명동     롯데아파트낙천대) 101동~115동 상가동,제한없음,35.23745769,129.0118679
차지비,화명동롯데낙천대아파트,3,AC완속,부산광역시,북구,부산광역시 북구 화명신도시로 156 (화명동     롯데아파트낙천대) 101동~115동 상가동,제한없음,35.23745769,129.0118679
차지비,화명동롯데낙천대아파트,4,AC완속,부산광역시,북구,부산광역시 북구 화명신도시로 156 (화명동     롯데아파트낙천대) 101동~115동 상가동,제한없음,35.23745769,129.0118679
차지비,화명동롯데낙천대아파트,5,AC완속,부산광역시,북구,부산광역시 북구 화명신도시로 156 (화명동     롯데아파트낙천대) 101동~115동 상가동,제한없음,35.23745769,129.0118679
차지비,화명코오롱하늘채1차아파트,1,AC완속,부산광역시,북구,"부산광역시 북구 화명신도시로 70 (화명동, 코오롱하늘채1차아파트)",제한없음,35.23078184,129.0115344
차지비,화명코오롱하늘채1차아파트,2,AC완속,부산광역시,북구,"부산광역시 북구 화명신도시로 70 (화명동, 코오롱하늘채1차아파트)",제한없음,35.23078184,129.0115344
차지비,화명코오롱하늘채1차아파트,3,AC완속,부산광역시,북구,"부산광역시 북구 화명신도시로 70 (화명동, 코오롱하늘채1차아파트)",제한없음,35.23078184,129.0115344
차지비,화명코오롱하늘채1차아파트,4,AC완속,부산광역시,북구,"부산광역시 북구 화명신도시로 70 (화명동, 코오롱하늘채1차아파트)",제한없음,35.23078184,129.0115344
차지비,화명코오롱하늘채1차아파트,5,AC완속,부산광역시,북구,"부산광역시 북구 화명신도시로 70 (화명동, 코오롱하늘채1차아파트)",제한없음,35.23078184,129.0115344
한국환경공단,부산울산경남지역본부,1,DC차데모+AC3상+DC콤보,부산광역시,북구,부산광역시 북구 낙동북로681번길 34,제한없음,35.20145058,129.0004963
한국환경공단,부산울산경남지역본부,2,DC차데모+AC3상+DC콤보,부산광역시,북구,부산광역시 북구 낙동북로681번길 34,제한없음,35.20145058,129.0004963
에스트래픽,개금역대상웰리움,1,AC완속,부산광역시,부산진구,부산광역시 부산진구 가야대로498번길 14,제한없음,35.15245787,129.0261073
에스트래픽,개금한진아파트,1,AC완속,부산광역시,부산진구,부산광역시 부산진구 백양대로208번길 88,제한없음,35.16163059,129.0256444
에스트래픽,기아자동차 강서명지점,1,DC콤보,부산광역시,강서구,부산광역시 강서구 르노삼성대로 683(명지동 616-97),제한없음,35.10892543,128.9302279
에스트래픽,기아자동차 대연지점,1,DC콤보,부산광역시,남구,부산광역시 남구 수영로 269(323 기아자동차부산지역본부),제한없음,35.13593307,129.0959978
에스트래픽,남산점 기아오토큐,1,AC완속,부산광역시,금정구,부산광역시 금정구 금강로 600,제한없음,35.26101713,129.0879982
에스트래픽,대륙코리아나,1,AC완속,부산광역시,동래구,부산광역시 동래구 쇠미로129번길 67,제한없음,35.20504863,129.058367
에스트래픽,동삼한진로즈힐(입주민 전용),1,AC완속,부산광역시,영도구,부산광역시 영도구 와치로294,제한없음,35.07345542,129.071186
에스트래픽,동삼한진로즈힐(입주민 전용),2,AC완속,부산광역시,영도구,부산광역시 영도구 와치로294,제한없음,35.07345542,129.071186
에스트래픽,롯데백화점 부산점,1,DC차데모+DC콤보,부산광역시,부산진구,부산광역시 부산진구 가야대로 772,제한없음,35.15678998,129.0564162
에스트래픽,롯데백화점 부산점,2,DC차데모+DC콤보,부산광역시,부산진구,부산광역시 부산진구 가야대로 772,제한없음,35.15678998,129.0564162
에스트래픽,롯데쇼핑㈜ 부산점,1,AC완속,부산광역시,부산진구,부산광역시 부산진구 가야대로 772,제한없음,35.15678998,129.0564162
에스트래픽,롯데쇼핑㈜ 부산점,2,AC완속,부산광역시,부산진구,부산광역시 부산진구 가야대로 772,제한없음,35.15678998,129.0564162
에스트래픽,롯데쇼핑㈜ 부산점,3,AC완속,부산광역시,부산진구,부산광역시 부산진구 가야대로 772,제한없음,35.15678998,129.0564162
에스트래픽,롯데쇼핑㈜ 부산점,4,AC완속,부산광역시,부산진구,부산광역시 부산진구 가야대로 772,제한없음,35.15678998,129.0564162
에스트래픽,롯데쇼핑㈜ 부산점,5,AC완속,부산광역시,부산진구,부산광역시 부산진구 가야대로 772,제한없음,35.15678998,129.0564162
에스트래픽,롯데쇼핑㈜ 부산점,6,AC완속,부산광역시,부산진구,부산광역시 부산진구 가야대로 772,제한없음,35.15678998,129.0564162
에스트래픽,롯데쇼핑㈜ 부산점,7,AC완속,부산광역시,부산진구,부산광역시 부산진구 가야대로 772,제한없음,35.15678998,129.0564162
에스트래픽,롯데쇼핑㈜ 부산점,8,AC완속,부산광역시,부산진구,부산광역시 부산진구 가야대로 772,제한없음,35.15678998,129.0564162
에스트래픽,롯데쇼핑㈜ 부산점,9,AC완속,부산광역시,부산진구,부산광역시 부산진구 가야대로 772,제한없음,35.15678998,129.0564162
에스트래픽,롯데쇼핑㈜ 부산점,10,AC완속,부산광역시,부산진구,부산광역시 부산진구 가야대로 772,제한없음,35.15678998,129.0564162
에스트래픽,삼덕정비(주),1,AC완속,부산광역시,사상구,부산광역시 사상구 가야대로 85,제한없음,35.15139546,128.9826538
에스트래픽,삼덕정비(주),2,AC완속,부산광역시,사상구,부산광역시 사상구 가야대로 85,제한없음,35.15139546,128.9826538
에스트래픽,영도신도브래뉴(입주민 전용),1,AC완속,부산광역시,영도구,부산광역시 영도구 태종로 260,제한없음,35.09800566,129.0563499
에스트래픽,영도신도브래뉴(입주민 전용),2,AC완속,부산광역시,영도구,부산광역시 영도구 태종로 260,제한없음,35.09800566,129.0563499
에스트래픽,영도신도브래뉴(입주민 전용),3,AC완속,부산광역시,영도구,부산광역시 영도구 태종로 260,제한없음,35.09800566,129.0563499
에스트래픽,영도신도브래뉴(입주민 전용),4,AC완속,부산광역시,영도구,부산광역시 영도구 태종로 260,제한없음,35.09800566,129.0563499
에스트래픽,영도신도브래뉴(입주민 전용),5,AC완속,부산광역시,영도구,부산광역시 영도구 태종로 260,제한없음,35.09800566,129.0563499
에스트래픽,오시리아스타테라스,1,DC차데모+AC3상+DC콤보,부산광역시,기장군,부산광역시 기장군 기장읍 기장해안로 172(시랑리 717),제한없음,35.19201833,129.2177678
에스트래픽,오시리아스타테라스,2,AC완속,부산광역시,기장군,부산광역시 기장군 기장읍 기장해안로 172(시랑리 717),제한없음,35.19201833,129.2177678
에스트래픽,오시리아스타테라스,3,AC완속,부산광역시,기장군,부산광역시 기장군 기장읍 기장해안로 172(시랑리 717),제한없음,35.19201833,129.2177678
에스트래픽,오시리아스타테라스,4,AC완속,부산광역시,기장군,부산광역시 기장군 기장읍 기장해안로 172(시랑리 717),제한없음,35.19201833,129.2177678
에스트래픽,오시리아스타테라스,5,AC완속,부산광역시,기장군,부산광역시 기장군 기장읍 기장해안로 172(시랑리 717),제한없음,35.19201833,129.2177678
에스트래픽,원스탑종합자동차정비,1,AC완속,부산광역시,부산진구,부산광역시 부산진구 가야대로 561,제한없음,35.15497916,129.0332431
에스트래픽,원스탑종합자동차정비,2,AC완속,부산광역시,부산진구,부산광역시 부산진구 가야대로 561,제한없음,35.15497916,129.0332431
에스트래픽,이든텍 주식회사,1,AC완속,부산광역시,강서구,부산광역시 강서구 과학산단로 405(지사동 1201-1),제한없음,35.14859337,128.8259449
에스트래픽,이마트 문현점,1,DC차데모+DC콤보,부산광역시,남구,부산광역시 남구 전포대로 91번길 47(문현동 751),제한없음,35.1443054,129.0642386
에스트래픽,이마트 문현점,2,DC차데모+DC콤보,부산광역시,남구,부산광역시 남구 전포대로 91번길 47(문현동 751),제한없음,35.1443054,129.0642386
에스트래픽,이마트 트레이더스 연산점,1,DC차데모+DC콤보,부산광역시,연제구,부산광역시 연제구 좌수영로 241(연산동 137-5),제한없음,35.18509398,129.1119509
에스트래픽,이마트 트레이더스 연산점,2,DC차데모+DC콤보,부산광역시,연제구,부산광역시 연제구 좌수영로 241(연산동 137-5),제한없음,35.18509398,129.1119509
에스트래픽,정관이지더원3차아파트(입주민 전용),1,AC완속,부산광역시,기장군,부산광역시 기장군 정관읍 정관로 350,제한없음,35.33580988,129.1643655
에스트래픽,정관이지더원3차아파트(입주민 전용),2,AC완속,부산광역시,기장군,부산광역시 기장군 정관읍 정관로 350,제한없음,35.33580988,129.1643655
에스트래픽,정관이지더원3차아파트(입주민 전용),3,AC완속,부산광역시,기장군,부산광역시 기장군 정관읍 정관로 350,제한없음,35.33580988,129.1643655
에스트래픽,정관이지더원3차아파트(입주민 전용),4,AC완속,부산광역시,기장군,부산광역시 기장군 정관읍 정관로 350,제한없음,35.33580988,129.1643655
에스트래픽,정관이지더원3차아파트(입주민 전용),5,AC완속,부산광역시,기장군,부산광역시 기장군 정관읍 정관로 350,제한없음,35.33580988,129.1643655
에스트래픽,정관이지더원3차아파트(입주민 전용),6,AC완속,부산광역시,기장군,부산광역시 기장군 정관읍 정관로 350,제한없음,35.33580988,129.1643655
에스트래픽,정관이지더원3차아파트(입주민 전용),7,AC완속,부산광역시,기장군,부산광역시 기장군 정관읍 정관로 350,제한없음,35.33580988,129.1643655
에스트래픽,정관이지더원3차아파트(입주민 전용),8,AC완속,부산광역시,기장군,부산광역시 기장군 정관읍 정관로 350,제한없음,35.33580988,129.1643655
에스트래픽,정관이지더원3차아파트(입주민 전용),9,AC완속,부산광역시,기장군,부산광역시 기장군 정관읍 정관로 350,제한없음,35.33580988,129.1643655
에스트래픽,정관이지더원3차아파트(입주민 전용),10,AC완속,부산광역시,기장군,부산광역시 기장군 정관읍 정관로 350,제한없음,35.33580988,129.1643655
지커넥트,(재)부산테크노파크6동,1,AC완속,부산광역시,강서구,부산광역시 강서구 과학산단1로60번길 30(지사동)(지사동 1274),제한없음,35.14755719,128.8276701
지커넥트,(재)부산테크노파크6동,2,AC완속,부산광역시,강서구,부산광역시 강서구 과학산단1로60번길 30(지사동)(지사동 1274),제한없음,35.14755719,128.8276701
지커넥트,(재)부산테크노파크엄궁단지,1,AC완속,부산광역시,사상구,부산광역시 사상구 엄궁로 70-16지하주차장장 입구 맞은편,제한없음,35.12241476,128.9735919
지커넥트,(재)부산테크노파크엄궁단지,2,AC완속,부산광역시,사상구,부산광역시 사상구 엄궁로 70-16지하주차장장 입구 맞은편,제한없음,35.12241476,128.9735919
지커넥트,(재)부산테크노파크해양생물산업육성센터,1,AC완속,부산광역시,기장군,부산광역시 기장군 일광면 횡계길 7(재)부산테크노파크해양생물산업육성센터(부산테크노파크 스마트해양바이오센터),제한없음,35.27374306,129.229481
지커넥트,(재)부산테크노파크해양생물산업육성센터,2,AC완속,부산광역시,기장군,부산광역시 기장군 일광면 횡계길 7(재)부산테크노파크해양생물산업육성센터(부산테크노파크 스마트해양바이오센터),제한없음,35.27374306,129.229481
지커넥트,(주)동서레스팅,1,AC완속,부산광역시,북구,부산광역시 북구 가람로 54(구포동)(구포동 410-7),제한없음,35.20641039,128.9993476
지커넥트,(주)동서레스팅,2,AC완속,부산광역시,북구,부산광역시 북구 가람로 54(구포동)(구포동 410-7),제한없음,35.20641039,128.9993476
지커넥트,감만1동 행정복지센터,1,AC완속,부산광역시,남구,부산광역시 남구 우암로 71-7감만1동 행정복지센터(141-3 감만1동주민센터),제한없음,35.11679308,129.0808829
지커넥트,감만2동 주민센터,1,AC완속,부산광역시,남구,부산광역시 남구 석포로 32-1감만2동 주민센터(20-58 감만2동주민센터),제한없음,35.12255215,129.0844208
지커넥트,강서해수온천,1,AC완속,부산광역시,강서구,부산광역시 강서구 제도로 965(강동동)(강동동 1648),제한없음,35.19837781,128.9253988
지커넥트,강서해수온천,2,AC완속,부산광역시,강서구,부산광역시 강서구 제도로 965(강동동)(강동동 1648),제한없음,35.19837781,128.9253988
지커넥트,갤러리4000,1,AC완속,부산광역시,수영구,부산광역시 수영구 수영로 452-10지상주차장 벽면 2대,제한없음,35.14605111,129.1105322
지커넥트,갤러리4000,2,AC완속,부산광역시,수영구,부산광역시 수영구 수영로 452-10지상주차장 벽면 2대,제한없음,35.14605111,129.1105322
지커넥트,광안1동 주민센터,1,AC완속,부산광역시,수영구,부산광역시 수영구 광일로14번길 17광안1동 주민센터(494-1 광안1동주민센터),제한없음,35.16289771,129.1124079
지커넥트,광안2동 주민센터,1,AC완속,부산광역시,수영구,부산광역시 수영구 광안로16번길 22광안2동 주민센터(509-19 광안2동주민센터),제한없음,35.15576659,129.1137944
지커넥트,광안3동 주민센터,1,AC완속,부산광역시,수영구,부산광역시 수영구 망미번영로38번길 103광안3동 주민센터(1070-3 광안3동주민센터),제한없음,35.16791863,129.1135815
지커넥트,남천1동 주민센터,1,AC완속,부산광역시,수영구,부산광역시 수영구 남천동로 13(남천동)(14-28 남천1동주민센터),제한없음,35.1426871,129.1103253
지커넥트,남천2동 주민센터,1,AC완속,부산광역시,수영구,부산광역시 수영구 광안해변로 99남천2동 주민센터(148-75 남천2동주민센터),제한없음,35.1438244,129.1147252
지커넥트,대연1동 주민센터,1,AC완속,부산광역시,남구,부산광역시 남구 유엔평화로 24대연1동 주민센터(대연1동 주민센터),제한없음,35.1328936,129.0917614
지커넥트,대연3동 주민센터,1,AC완속,부산광역시,남구,부산광역시 남구 수영로 345대연3동 주민센터(1858 대연힐스테이트푸르지오),제한없음,35.13988753,129.1035202
지커넥트,대연4동 주민센터,1,AC완속,부산광역시,남구,부산광역시 남구 석포로91번길 96대연4동 주민센터(1020-2 대연4동주민센터),제한없음,35.12980843,129.0914149
지커넥트,대연5동 주민센터,1,AC완속,부산광역시,남구,부산광역시 남구 진남로46번길 7대연5동 주민센터(1463-1 대연5동주민센터),제한없음,35.13845516,129.0901611
지커넥트,대연6동주민센터,1,AC완속,부산광역시,남구,부산광역시 남구 못골로 13(대연동)(1888 대연6동주민센터),제한없음,35.1372627,129.0831063
지커넥트,대정전력,1,AC완속,부산광역시,북구,부산광역시 북구 화명대로 5(화명동)(화명동 2270-5),제한없음,35.23555114,129.0089911
지커넥트,대정전력,2,AC완속,부산광역시,북구,부산광역시 북구 화명대로 5(화명동)(화명동 2270-5),제한없음,35.23555114,129.0089911
지커넥트,대정전력,3,AC완속,부산광역시,북구,부산광역시 북구 화명대로 5(화명동)(화명동 2270-5),제한없음,35.23555114,129.0089911
지커넥트,망미2동 주민센터,1,AC완속,부산광역시,수영구,부산광역시 수영구 수미로35번길 40(망미동)(257-2 망미2동주민센터),제한없음,35.17531365,129.1152949
지커넥트,모라우성아파트,3,AC완속,부산광역시,사상구,부산광역시 사상구 백양대로 906모라우성아파트(1357 우성아파트),제한없음,35.18846755,128.9922275
지커넥트,문현1동 행정복지센터,1,AC완속,부산광역시,남구,부산광역시 남구 고동골로60번길 1문현1동 행정복지센터(127-10 문현1동주민센터),제한없음,35.14253417,129.0713224
지커넥트,문현2동 주민센터,1,AC완속,부산광역시,남구,부산광역시 남구 전포대로92번길 31-7문현2동 주민센터(546-42 문현2동주민센터),제한없음,35.14527179,129.0686869
지커넥트,문현3동 주민센터,1,AC완속,부산광역시,남구,부산광역시 남구 고동골로4번길 7-18문현3동 주민센터(205-44 문현3동주민센터),제한없음,35.13814557,129.0716877
지커넥트,문현4동 주민센터,1,AC완속,부산광역시,남구,"부산광역시 남구 수영로 12(문현동, 문현4동 주민센터)(366-18 세종그랑시아아파트)",제한없음,35.13619559,129.0691279
지커넥트,민락동 주민센터,1,AC완속,부산광역시,수영구,부산광역시 수영구 광안해변로295번길 20(민락동)(34-10 민락동주민센터),제한없음,35.15725991,129.1254341
지커넥트,부산관광호텔,1,AC완속,부산광역시,중구,부산광역시 중구 광복로97번길 23(동광동2가)(동광동2가 12-1),제한없음,35.1002923,129.0346289
지커넥트,부산관광호텔,2,AC완속,부산광역시,중구,부산광역시 중구 광복로97번길 23(동광동2가)(동광동2가 12-1),제한없음,35.1002923,129.0346289
지커넥트,부산동구청,1,DC차데모+DC콤보,부산광역시,동구,부산광역시 동구 구청로 1부산동구청(806-74 동구청),제한없음,35.12929757,129.0452982
지커넥트,부산동구청,2,AC완속,부산광역시,동구,부산광역시 동구 구청로 1부산동구청(806-74 동구청),제한없음,35.12929757,129.0452982
지커넥트,부산진시장 주차빌딩,1,AC완속,부산광역시,동구,부산광역시 동구 진시장로 13부산진시장 주차빌딩(644-10 부산진시장주차빌딩),제한없음,35.13771137,129.0580335
지커넥트,부산진시장 주차빌딩,2,AC완속,부산광역시,동구,부산광역시 동구 진시장로 13부산진시장 주차빌딩(644-10 부산진시장주차빌딩),제한없음,35.13771137,129.0580335
지커넥트,부산진시장 주차빌딩,3,AC완속,부산광역시,동구,부산광역시 동구 진시장로 13부산진시장 주차빌딩(644-10 부산진시장주차빌딩),제한없음,35.13771137,129.0580335
지커넥트,부산진시장 주차빌딩,4,AC완속,부산광역시,동구,부산광역시 동구 진시장로 13부산진시장 주차빌딩(644-10 부산진시장주차빌딩),제한없음,35.13771137,129.0580335
지커넥트,부산진시장 주차빌딩,5,AC완속,부산광역시,동구,부산광역시 동구 진시장로 13부산진시장 주차빌딩(644-10 부산진시장주차빌딩),제한없음,35.13771137,129.0580335
지커넥트,센텀리더스마크,1,AC완속,부산광역시,해운대구,부산광역시 해운대구 APEC로 17(우동)(1514 센텀리더스마크),제한없음,35.16593245,129.1324115
지커넥트,센텀리더스마크,2,AC완속,부산광역시,해운대구,부산광역시 해운대구 APEC로 17(우동)(1514 센텀리더스마크),제한없음,35.16593245,129.1324115
지커넥트,센텀리더스마크,3,AC완속,부산광역시,해운대구,부산광역시 해운대구 APEC로 17(우동)(1514 센텀리더스마크),제한없음,35.16593245,129.1324115
지커넥트,센텀리더스마크,4,AC완속,부산광역시,해운대구,부산광역시 해운대구 APEC로 17(우동)(1514 센텀리더스마크),제한없음,35.16593245,129.1324115
지커넥트,수영동 주민센터,1,AC완속,부산광역시,수영구,부산광역시 수영구 수영성로 36수영동 주민센터(191-2 수영동주민센터),제한없음,35.17050655,129.1160482
지커넥트,에이스하이테크21,1,AC완속,부산광역시,해운대구,부산광역시 해운대구 센텀중앙로 48(우동)에이스하이테크21(1470 에이스하이테크21),제한없음,35.17302466,129.1298516
지커넥트,에이스하이테크21,2,AC완속,부산광역시,해운대구,부산광역시 해운대구 센텀중앙로 48(우동)에이스하이테크21(1470 에이스하이테크21),제한없음,35.17302466,129.1298516
지커넥트,에이스하이테크21,3,AC완속,부산광역시,해운대구,부산광역시 해운대구 센텀중앙로 48(우동)에이스하이테크21(1470 에이스하이테크21),제한없음,35.17302466,129.1298516
지커넥트,용당동 주민센터,1,AC완속,부산광역시,남구,부산광역시 남구 신선로 349-4용당동 주민센터(401-1 용당동주민센터),제한없음,35.11764739,129.0950541
지커넥트,용호1동 행정복지센터,1,AC완속,부산광역시,남구,부산광역시 남구 용호로42번길 140용호1동 행정복지센터(414-47 용호1동주민센터),제한없음,35.12079303,129.1090285
지커넥트,용호2동 주민센터,1,AC완속,부산광역시,남구,부산광역시 남구 용호로197번길 41용호2동 주민센터(517-19 용호2동주민센터),제한없음,35.11483084,129.1134273
지커넥트,용호3동 행정복지센터,1,AC완속,부산광역시,남구,부산광역시 남구 동명로145번길 33용호3동 행정복지센터(371-2 용호3동주민센터),제한없음,35.12101951,129.1128084
지커넥트,용호4동 주민센터,1,AC완속,부산광역시,남구,부산광역시 남구 용호로216번길 10용호4동 주민센터(533-23 용호4동주민센터),제한없음,35.11320766,129.1104084
지커넥트,우암동 행정복지센터,1,AC완속,부산광역시,남구,부산광역시 남구 우암로 190-15우암동 행정복지센터(162-15 우암동주민센터),제한없음,35.12472244,129.0760644
지커넥트,테마모텔,1,AC완속,부산광역시,동구,부산광역시 동구 중앙대로 243-9(초량동)(171-15 테마모텔),제한없음,35.11913004,129.0412421
지커넥트,테마모텔,2,AC완속,부산광역시,동구,부산광역시 동구 중앙대로 243-9(초량동)(171-15 테마모텔),제한없음,35.11913004,129.0412421
지커넥트,한나여성병원,1,AC완속,부산광역시,수영구,부산광역시 수영구 황령대로481번길 7(남천동)(남천동 한나산부인과),제한없음,35.13917248,129.1069827
지커넥트,한나여성병원,2,AC완속,부산광역시,수영구,부산광역시 수영구 황령대로481번길 7(남천동)(남천동 한나산부인과),제한없음,35.13917248,129.1069827
지커넥트,호텔 아쿠아팰리스,1,AC완속,부산광역시,수영구,부산광역시 수영구 광안해변로 225 (광안동)아쿠아펠리스호텔 지상주차장 벽면(광안동 192-5),제한없음,35.15412814,129.1188159
지커넥트,호텔 아쿠아팰리스,2,AC완속,부산광역시,수영구,부산광역시 수영구 광안해변로 225 (광안동)아쿠아펠리스호텔 지상주차장 벽면(광안동 192-5),제한없음,35.15412814,129.1188159
에버온,가야1동주민센터,1,AC완속,부산광역시,부산진구,부산광역시 부산진구 가야대로572번길 22(296-1 가야1동주민센터),제한없음,35.15324525,129.0342875
에버온,감전동주민센터,1,AC완속,부산광역시,사상구,부산광역시 사상구 새벽시장로56번길 20(감전동 주민센터),제한없음,35.15420138,128.9794076
에버온,감천1동행정복지센터,1,AC완속,부산광역시,사하구,부산광역시 사하구 감천로117번길 2(479-4 감천1동행정복지센터),제한없음,35.08803231,129.0046513
에버온,감천2동행정복지센터,1,AC완속,부산광역시,사하구,부산광역시 사하구 옥천로93번길 14(12-9 감천2동행정복지센터),제한없음,35.09461091,129.0093604
에버온,강동동행정복지센터,1,AC완속,부산광역시,강서구,부산광역시 강서구 제도로 1171,제한없음,35.21452458,128.9352666
에버온,거제1동주민센터,1,AC완속,부산광역시,연제구,부산광역시 연제구 법원북로 88(거제1동 주민센터),제한없음,35.1918532,129.0756383
에버온,거제2동주민센터,1,AC완속,부산광역시,연제구,부산광역시 연제구 아시아드대로22번길 19(1180-8 거제2동주민센터),제한없음,35.18776194,129.0702873
에버온,거제4동 주민센터,1,AC완속,부산광역시,연제구,부산광역시 연제구 해맞이로43번길 36(676-122 해맞이경로당),제한없음,35.17937001,129.0665684
에버온,고촌LH3단지,1,AC완속,부산광역시,기장군,부산광역시 기장군 철마면 고촌로 58 (고촌 엘에이치 3단지 아파트)고촌LH3단지,제한없음,35.23960948,129.1681292
에버온,고촌LH3단지,2,AC완속,부산광역시,기장군,부산광역시 기장군 철마면 고촌로 58 (고촌 엘에이치 3단지 아파트)고촌LH3단지,제한없음,35.23960948,129.1681292
에버온,광안동삼정그린코아아파트,1,AC완속,부산광역시,수영구,부산광역시 수영구 수영로540번길 57지하2층 28번~26번 기둥사이,제한없음,35.15343938,129.1156256
에버온,광안동삼정그린코아아파트,2,AC완속,부산광역시,수영구,부산광역시 수영구 수영로540번길 57지하2층 28번~26번 기둥사이,제한없음,35.15343938,129.1156256
에버온,광안동삼정그린코아아파트,3,AC완속,부산광역시,수영구,부산광역시 수영구 수영로540번길 57지하2층 28번~26번 기둥사이,제한없음,35.15343938,129.1156256
에버온,광안동삼정그린코아아파트,4,AC완속,부산광역시,수영구,부산광역시 수영구 수영로540번길 57지하2층 28번~26번 기둥사이,제한없음,35.15343938,129.1156256
에버온,광안동삼정그린코아아파트,5,AC완속,부산광역시,수영구,부산광역시 수영구 수영로540번길 57지하2층 28번~26번 기둥사이,제한없음,35.15343938,129.1156256
에버온,괘법동주민센터,1,AC완속,부산광역시,사상구,부산광역시 사상구 광장로97번길 6(541-24 괘법동주민센터),제한없음,35.16375865,128.9871931
에버온,괴정2동행정복지센터,1,AC완속,부산광역시,사하구,부산광역시 사하구 까치고개로 14-1(354-22 괴정2동행정복지센터),제한없음,35.10339842,129.0040256
에버온,괴정3동주민센터,1,AC완속,부산광역시,사하구,부산광역시 사하구 낙동대로171번길 30-5(404-2 괴정3동행정복지센터),제한없음,35.1003418,128.9980927
에버온,구포1동주민센터,1,AC완속,부산광역시,북구,부산광역시 북구 낙동대로1762번길 75(430-1 구포1동주민센터),제한없음,35.20645937,129.0011333
에버온,구포3동주민센터,1,AC완속,부산광역시,북구,부산광역시 북구 시랑로118번길 23(구포3동 주민센터),제한없음,35.19493176,129.0087921
에버온,국제백양아파트,1,AC완속,부산광역시,부산진구,"부산광역시 부산진구 백양관문로 104 (당감동, 국제백양아파트)",제한없음,35.1680306,129.0291855
에버온,국제백양아파트,2,AC완속,부산광역시,부산진구,"부산광역시 부산진구 백양관문로 104 (당감동, 국제백양아파트)",제한없음,35.1680306,129.0291855
에버온,국제백양아파트,3,AC완속,부산광역시,부산진구,"부산광역시 부산진구 백양관문로 104 (당감동, 국제백양아파트)",제한없음,35.1680306,129.0291855
에버온,기장 정관풀리페아파트,1,AC완속,부산광역시,기장군,부산광역시 기장군 정관읍 정관5로 144(용수리 1275),제한없음,35.32904645,129.1795515
에버온,기장 정관풀리페아파트,2,AC완속,부산광역시,기장군,부산광역시 기장군 정관읍 정관5로 144(용수리 1275),제한없음,35.32904645,129.1795515
에버온,기장 정관풀리페아파트,3,AC완속,부산광역시,기장군,부산광역시 기장군 정관읍 정관5로 144(용수리 1275),제한없음,35.32904645,129.1795515
에버온,남부민1동행정복지센터,1,AC완속,부산광역시,서구,부산광역시 서구 충무대로255번길 5-26(643-16 남부민1동주민센터),제한없음,35.09274776,129.0233125
에버온,남부민2동행정복지센터,1,AC완속,부산광역시,서구,부산광역시 서구 천마로 87(남부민2동 주민센터),제한없음,35.08450841,129.0205445
에버온,남산동행정복지센터,1,AC완속,부산광역시,금정구,부산광역시 금정구 중앙대로2097번길 4(남산동 행정복지센터),제한없음,35.27166154,129.0922619
에버온,녹산동 주민센터,1,AC완속,부산광역시,강서구,부산광역시 강서구 가락대로900번가길 32(녹산동 주민센터),제한없음,35.15352804,128.8837843
에버온,다대1동주민센터,1,AC완속,부산광역시,사하구,부산광역시 사하구 윤공단로 119(다대동 1668),제한없음,35.06108793,128.9715902
에버온,다대2동행정복지센터,1,AC완속,부산광역시,사하구,부산광역시 사하구 다대로429번길 30(120-35 다대2동행정복지센터),제한없음,35.06355298,128.9820086
에버온,당감1동행정복지센터,1,AC완속,부산광역시,부산진구,부산광역시 부산진구 동평로44번길 49-6(당감1동 주민센터),제한없음,35.16444623,129.0356648
에버온,당리동행정복지센터,1,AC완속,부산광역시,사하구,부산광역시 사하구 낙동대로 380(321-9 당리동행정복지센터),제한없음,35.1029348,128.9766805
에버온,대저1동행정복지센터,1,AC완속,부산광역시,강서구,부산광역시 강서구 대저로221번길 19주민센터 건물 좌측옆면 주차장 화단,제한없음,35.21546593,128.9768404
에버온,대저2동행정복지센터,1,AC완속,부산광역시,강서구,부산광역시 강서구 공항로811번가길 30-1주민센터 우측 시니어클럽앞 주차장,제한없음,35.17854941,128.9564832
에버온,대청동주민센터,1,AC완속,부산광역시,중구,부산광역시 중구 대청로99번길 14-1(대청동 주민센터),제한없음,35.10424061,129.031089
에버온,덕천1동행정복지센터,1,AC완속,부산광역시,북구,부산광역시 북구 만덕대로102번가길 11(389-33 덕천제1동행정복지센터),제한없음,35.21244431,129.0166649
에버온,덕천2동행정복지센터,1,AC완속,부산광역시,북구,부산광역시 북구 금곡대로20번길 56(덕천2동 행정복지센터),제한없음,35.21236613,129.0078332
에버온,덕천3동행정복지센터,1,AC완속,부산광역시,북구,부산광역시 북구 덕천로 118(809-1 덕천제3동행정복지센터),제한없음,35.20991893,129.0174568
에버온,덕포2동주민센터,1,AC완속,부산광역시,사상구,부산광역시 사상구 사상로333번길 17(403-9 덕포2동주민센터),제한없음,35.17445339,128.9829682
에버온,동래센트럴파크하이츠1단지,1,AC완속,부산광역시,동래구,"부산광역시 동래구 문화로 15 (명륜동, 동래센트럴파크하이츠1차)",제한없음,35.21126598,129.0844184
에버온,동래센트럴파크하이츠1단지,2,AC완속,부산광역시,동래구,"부산광역시 동래구 문화로 15 (명륜동, 동래센트럴파크하이츠1차)",제한없음,35.21126598,129.0844184
에버온,동래센트럴파크하이츠1단지,3,AC완속,부산광역시,동래구,"부산광역시 동래구 문화로 15 (명륜동, 동래센트럴파크하이츠1차)",제한없음,35.21126598,129.0844184
에버온,동래센트럴파크하이츠1단지,4,AC완속,부산광역시,동래구,"부산광역시 동래구 문화로 15 (명륜동, 동래센트럴파크하이츠1차)",제한없음,35.21126598,129.0844184
에버온,동래센트럴파크하이츠1단지,5,AC완속,부산광역시,동래구,"부산광역시 동래구 문화로 15 (명륜동, 동래센트럴파크하이츠1차)",제한없음,35.21126598,129.0844184
에버온,동래센트럴파크하이츠1단지,6,AC완속,부산광역시,동래구,"부산광역시 동래구 문화로 15 (명륜동, 동래센트럴파크하이츠1차)",제한없음,35.21126598,129.0844184
에버온,동래센트럴파크하이츠1단지,7,AC완속,부산광역시,동래구,"부산광역시 동래구 문화로 15 (명륜동, 동래센트럴파크하이츠1차)",제한없음,35.21126598,129.0844184
에버온,동래센트럴파크하이츠1단지,8,AC완속,부산광역시,동래구,"부산광역시 동래구 문화로 15 (명륜동, 동래센트럴파크하이츠1차)",제한없음,35.21126598,129.0844184
에버온,동삼1동행정복지센터,1,AC완속,부산광역시,영도구,부산광역시 영도구 중리로 44-1(510-23 동삼1동주민센터),제한없음,35.07491121,129.0684079
에버온,동삼3동행정복지센터,1,AC완속,부산광역시,영도구,부산광역시 영도구 상리로 39(1123-9 동삼3동주민센터),제한없음,35.08466595,129.0686547
에버온,두산위브범일뉴타운,1,AC완속,부산광역시,동구,"부산광역시 동구 성남일로 5 (좌천동, 두산위브범일뉴타운)",제한없음,35.13226253,129.0554395
에버온,두산위브범일뉴타운,2,AC완속,부산광역시,동구,"부산광역시 동구 성남일로 5 (좌천동, 두산위브범일뉴타운)",제한없음,35.13226253,129.0554395
에버온,두산위브범일뉴타운,3,AC완속,부산광역시,동구,"부산광역시 동구 성남일로 5 (좌천동, 두산위브범일뉴타운)",제한없음,35.13226253,129.0554395
에버온,두산위브범일뉴타운,4,AC완속,부산광역시,동구,"부산광역시 동구 성남일로 5 (좌천동, 두산위브범일뉴타운)",제한없음,35.13226253,129.0554395
에버온,래미안장전아파트,1,AC완속,부산광역시,금정구,"부산광역시 금정구 금정로 20 (장전동, 래미안장전)",제한없음,35.22759228,129.0867401
에버온,래미안장전아파트,2,AC완속,부산광역시,금정구,"부산광역시 금정구 금정로 20 (장전동, 래미안장전)",제한없음,35.22759228,129.0867401
에버온,래미안장전아파트,3,AC완속,부산광역시,금정구,"부산광역시 금정구 금정로 20 (장전동, 래미안장전)",제한없음,35.22759228,129.0867401
에버온,래미안장전아파트,4,AC완속,부산광역시,금정구,"부산광역시 금정구 금정로 20 (장전동, 래미안장전)",제한없음,35.22759228,129.0867401
에버온,래미안장전아파트,5,AC완속,부산광역시,금정구,"부산광역시 금정구 금정로 20 (장전동, 래미안장전)",제한없음,35.22759228,129.0867401
에버온,래미안장전아파트,6,AC완속,부산광역시,금정구,"부산광역시 금정구 금정로 20 (장전동, 래미안장전)",제한없음,35.22759228,129.0867401
에버온,만덕2동주민센터,1,AC완속,부산광역시,북구,부산광역시 북구 만덕2로44번길 10(289-1 만덕제2동주민센터),제한없음,35.2101851,129.0372031
에버온,만덕3동주민센터,1,AC완속,부산광역시,북구,부산광역시 북구 만덕3로 52(만덕제3동 행정복지센터),제한없음,35.21137264,129.0291519
에버온,명지1동 주민센터,1,AC완속,부산광역시,강서구,부산광역시 강서구 영강길19번길 58(명지동 1443-2),제한없음,35.10816359,128.9263237
에버온,모라1동 주민센터,1,AC완속,부산광역시,사상구,부산광역시 사상구 백양대로 952(모라1동 주민센터),제한없음,35.19110045,128.9923398
에버온,모라3동행정복지센터,1,AC완속,부산광역시,사상구,부산광역시 사상구 모라로110번길 99(모라3동 주민센터),제한없음,35.18465446,128.9960601
에버온,반송1동주민센터,1,AC완속,부산광역시,해운대구,부산광역시 해운대구 아랫반송로 16(717-5 반송1동주민센터),제한없음,35.22516909,129.1479054
에버온,반송2동주민센터,1,AC완속,부산광역시,해운대구,부산광역시 해운대구 신반송로 173(반송2동 주민센터),제한없음,35.22884697,129.1604133
에버온,반여1동주민센터,1,AC완속,부산광역시,해운대구,부산광역시 해운대구 선수촌로 85(1441-34 반여1동주민센터),제한없음,35.20114633,129.1189306
에버온,반여2동주민센터,1,AC완속,부산광역시,해운대구,부산광역시 해운대구 재반로211번길 9(1291-836 반여2동주민센터),제한없음,35.1958884,129.1301394
에버온,반여3동주민센터,1,AC완속,부산광역시,해운대구,부산광역시 해운대구 재반로256번길 29-70(반여3동 주민센터),제한없음,35.20099393,129.1335055
에버온,반여4동주민센터,1,AC완속,부산광역시,해운대구,부산광역시 해운대구 삼어로133번길 50(1122 반여4동주민센터),제한없음,35.20923882,129.1170905
에버온,보수동행정복지센터,1,AC완속,부산광역시,중구,부산광역시 중구 보수대로140번길 61(보수동 행정복지센터),제한없음,35.10618152,129.0246936
에버온,봉래2동행정복지센터,1,AC완속,부산광역시,영도구,부산광역시 영도구 태종로165번길 1-8(45-20 봉래2동주민센터),제한없음,35.0942106,129.0461449
에버온,부곡1동주민센터,1,AC완속,부산광역시,금정구,부산광역시 금정구 동부곡로6번길 29(부곡1동 행정복지센터),제한없음,35.22440783,129.0921346
에버온,부산 가락타운1단지101동,1,AC완속,부산광역시,사하구,부산광역시 사하구 하신번영로 365101동지하주차장 A01기둥좌우,제한없음,35.11028702,128.9585315
에버온,부산 가락타운1단지101동,2,AC완속,부산광역시,사하구,부산광역시 사하구 하신번영로 365101동지하주차장 A01기둥좌우,제한없음,35.11028702,128.9585315
에버온,부산 가락타운1단지101동,3,AC완속,부산광역시,사하구,부산광역시 사하구 하신번영로 365101동지하주차장 A01기둥좌우,제한없음,35.11028702,128.9585315
에버온,부산 가락타운1단지106동,1,AC완속,부산광역시,사하구,부산광역시 사하구 하신번영로 365106동지하주차장 B05기둥우측,제한없음,35.11028702,128.9585315
에버온,부산 가락타운1단지106동,2,AC완속,부산광역시,사하구,부산광역시 사하구 하신번영로 365106동지하주차장 B05기둥우측,제한없음,35.11028702,128.9585315
에버온,부산 가락타운1단지114동,1,AC완속,부산광역시,사하구,부산광역시 사하구 하신번영로 365114동 지하주차장 C20번기둥과21번기둥사이,제한없음,35.11028702,128.9585315
에버온,부산 가락타운1단지114동,2,AC완속,부산광역시,사하구,부산광역시 사하구 하신번영로 365114동 지하주차장 C20번기둥과21번기둥사이,제한없음,35.11028702,128.9585315
에버온,부산 가락타운1단지116동,1,AC완속,부산광역시,사하구,부산광역시 사하구 하신번영로 365116동 지하주차장 D01기둥 좌우측,제한없음,35.11028702,128.9585315
에버온,부산 가락타운1단지116동,2,AC완속,부산광역시,사하구,부산광역시 사하구 하신번영로 365116동 지하주차장 D01기둥 좌우측,제한없음,35.11028702,128.9585315
에버온,부산 가락타운1단지116동,3,AC완속,부산광역시,사하구,부산광역시 사하구 하신번영로 365116동 지하주차장 D01기둥 좌우측,제한없음,35.11028702,128.9585315
에버온,부산 거제유림노르웨이숲101동,1,AC완속,부산광역시,연제구,부산광역시 연제구 거제대로136번길 30101동지하2층 3/4라인 D6D7기둥,제한없음,35.1803491,129.0709257
에버온,부산 거제유림노르웨이숲101동,2,AC완속,부산광역시,연제구,부산광역시 연제구 거제대로136번길 30101동지하2층 3/4라인 D6D7기둥,제한없음,35.1803491,129.0709257
에버온,부산 거제유림노르웨이숲101동,3,AC완속,부산광역시,연제구,부산광역시 연제구 거제대로136번길 30101동지하2층 3/4라인 D6D7기둥,제한없음,35.1803491,129.0709257
에버온,부산 거제유림노르웨이숲201동,1,AC완속,부산광역시,연제구,부산광역시 연제구 거제대로136번길 30201동지하2층3/4라인 D1기둥,제한없음,35.1803491,129.0709257
에버온,부산 거제유림노르웨이숲201동,2,AC완속,부산광역시,연제구,부산광역시 연제구 거제대로136번길 30201동지하2층3/4라인 D1기둥,제한없음,35.1803491,129.0709257
에버온,부산 거제유림노르웨이숲201동,3,AC완속,부산광역시,연제구,부산광역시 연제구 거제대로136번길 30201동지하2층3/4라인 D1기둥,제한없음,35.1803491,129.0709257
에버온,부산 아시아선수촌아파트2,2,AC완속,부산광역시,해운대구,"부산광역시 해운대구 선수촌로 122지하2층 1,2라인 분전반 우측",제한없음,35.20387141,129.1216813
에버온,부산 장전1동주민센터,1,AC완속,부산광역시,금정구,부산광역시 금정구 수림로71번길 361층주차장,제한없음,35.23819382,129.0844822
에버온,부산 청룡동경동아파트2차아파트,1,AC완속,부산광역시,금정구,"부산광역시 금정구 청룡예전로 100-12201동지하주차장B4기동과B5기둥사이,C4기둥과C5기둥사이",제한없음,35.27957092,129.0853094
에버온,부산 청룡동경동아파트2차아파트,2,AC완속,부산광역시,금정구,"부산광역시 금정구 청룡예전로 100-12201동지하주차장B4기동과B5기둥사이,C4기둥과C5기둥사이",제한없음,35.27957092,129.0853094
에버온,부산 청룡동경동아파트2차아파트,3,AC완속,부산광역시,금정구,"부산광역시 금정구 청룡예전로 100-12201동지하주차장B4기동과B5기둥사이,C4기둥과C5기둥사이",제한없음,35.27957092,129.0853094
에버온,부산 청룡동경동아파트2차아파트,4,AC완속,부산광역시,금정구,"부산광역시 금정구 청룡예전로 100-12201동지하주차장B4기동과B5기둥사이,C4기둥과C5기둥사이",제한없음,35.27957092,129.0853094
에버온,부산 해운대벽산2차아파트 108동,1,AC완속,부산광역시,해운대구,부산광역시 해운대구 좌동순환로299번길 11지하2층108동분전함우측,제한없음,35.16957101,129.1850488
에버온,부산 해운대벽산2차아파트 108동,2,AC완속,부산광역시,해운대구,부산광역시 해운대구 좌동순환로299번길 11지하2층108동분전함우측,제한없음,35.16957101,129.1850488
에버온,부산 해운대벽산2차아파트 108동,3,AC완속,부산광역시,해운대구,부산광역시 해운대구 좌동순환로299번길 11지하2층108동분전함우측,제한없음,35.16957101,129.1850488
에버온,부산 해운대벽산2차아파트 111동,1,AC완속,부산광역시,해운대구,부산광역시 해운대구 좌동순환로299번길 11지하2층111동지하램프우측,제한없음,35.16957101,129.1850488
